{
  "version": 0.6,
  "generator": "Overpass API 0.7.62.11 87bfad18",
  "osm3s": {
    "timestamp_osm_base": "2026-03-26T01:08:49Z",
    "timestamp_areas_base": "2026-03-25T12:08:00Z",
    "copyright": "The data included in this document is from www.openstreetmap.org. The data is made available under ODbL."
  },
  "elements": [

    {
      "type": "node",
      "id": 27282112,
      "lat": 48.0046858,
      "lon": 13.6522850,
      "tags": {
        "leisure": "sports_centre",
        "name": "Turnhalle Turnverein",
        "sport": "multi"
      }
    },
    {
      "type": "node",
      "id": 41461991,
      "lat": 48.0158693,
      "lon": 16.2886301,
      "tags": {
        "leisure": "sports_centre",
        "name": "Lions Dome - Sporthalle Traiskirchen",
        "sport": "basketball"
      }
    },
    {
      "type": "node",
      "id": 61083330,
      "lat": 47.0481941,
      "lon": 16.0739513,
      "tags": {
        "leisure": "sports_centre",
        "name": "Stadthalle",
        "source": "survey",
        "sport": "basketball",
        "wheelchair": "limited"
      }
    },
    {
      "type": "node",
      "id": 82794293,
      "lat": 47.9990128,
      "lon": 16.2560531,
      "tags": {
        "leisure": "sports_centre",
        "name": "Sporthalle Baden",
        "sport": "basketball"
      }
    },
    {
      "type": "node",
      "id": 83453802,
      "lat": 48.2747016,
      "lon": 16.4041877,
      "tags": {
        "created_by": "Potlatch 0.10f",
        "leisure": "sports_centre",
        "name": "MAXX Sportcenter"
      }
    },
    {
      "type": "node",
      "id": 197819750,
      "lat": 47.0732290,
      "lon": 15.4590332,
      "tags": {
        "leisure": "sports_centre",
        "name": "Unionhalle",
        "operator": "Sportunion Steiermark",
        "source": "survey",
        "sport": "basketball"
      }
    },
    {
      "type": "node",
      "id": 253087417,
      "lat": 46.6176471,
      "lon": 14.2623194,
      "tags": {
        "leisure": "sports_centre",
        "name": "Kunstakademie Maestro",
        "sport": "gymnastics",
        "tourism": "artwork"
      }
    },
    {
      "type": "node",
      "id": 254770675,
      "lat": 47.4465218,
      "lon": 15.3078980,
      "tags": {
        "leisure": "sports_centre",
        "name": "Walfersamhalle",
        "source": "survey",
        "sport": "basketball",
        "wheelchair": "limited"
      }
    },
    {
      "type": "node",
      "id": 270608972,
      "lat": 47.4439617,
      "lon": 15.3004507,
      "tags": {
        "building": "public",
        "leisure": "stadium",
        "name": "Alpenstadion",
        "wheelchair": "yes"
      }
    },
    {
      "type": "node",
      "id": 276184676,
      "lat": 48.2009771,
      "lon": 16.3320668,
      "tags": {
        "addr:city": "Wien",
        "addr:country": "AT",
        "addr:housenumber": "2h",
        "addr:postcode": "1150",
        "addr:street": "Hütteldorfer Straße",
        "check_date:opening_hours": "2025-11-24",
        "leisure": "sports_centre",
        "name": "Stadthallenbad",
        "opening_hours": "Mo 08:00-21:30; Tu 06:30-21:30; We 08:00-17:30; Th 06:30-21:30; Fr 08:00-21:30; Sa 07:00-21:30; Su,PH 07:00-18:00",
        "operator:type": "private",
        "phone": "+43 1 890 1764 890",
        "sauna": "yes",
        "sport": "swimming",
        "website": "https://www.wienersportstaetten.at/home/stadthallenbad",
        "wikidata": "Q37822643"
      }
    },
    {
      "type": "node",
      "id": 276684608,
      "lat": 48.3456499,
      "lon": 14.1587832,
      "tags": {
        "leisure": "sports_centre",
        "name": "Sportpark",
        "wheelchair": "no"
      }
    },
    {
      "type": "node",
      "id": 276726334,
      "lat": 48.3276521,
      "lon": 14.1622164,
      "tags": {
        "leisure": "sports_centre",
        "name": "Oö. Leistungszentrum für Wassersport",
        "sport": "rowing"
      }
    },
    {
      "type": "node",
      "id": 282549791,
      "lat": 46.6305019,
      "lon": 13.8114559,
      "tags": {
        "addr:city": "Villach",
        "addr:housenumber": "67",
        "addr:street": "Obere Fellacher Straße",
        "internet_access": "wlan",
        "internet_access:fee": "no",
        "internet_access:operator": "FON",
        "leisure": "sports_centre",
        "name": "Tennisplätze Henselkaserne",
        "sport": "tennis"
      }
    },
    {
      "type": "node",
      "id": 295730961,
      "lat": 47.4641987,
      "lon": 9.7222415,
      "tags": {
        "addr:city": "Lauterach",
        "addr:country": "AT",
        "addr:housenumber": "25",
        "addr:postcode": "6923",
        "addr:street": "Scheibenstraße",
        "contact:email": "info@strike-center.at",
        "contact:phone": "+43 5574 65066",
        "contact:website": "http://www.strike-center.at",
        "leisure": "sports_centre",
        "name": "Strike Center Lauterach",
        "opening_hours": "Mo-We 16:00-01:00, Th 16:00-02:00; Fr, Sa 14:00-03:00; Su 13:30-00:00",
        "operator": "TREND Bowlingbahnenbetriebs GmbH & Co KG",
        "sport": "10pin",
        "wheelchair": "yes"
      }
    },
    {
      "type": "node",
      "id": 304779769,
      "lat": 47.2325675,
      "lon": 10.7376819,
      "tags": {
        "leisure": "sports_centre",
        "name": "Boulderhalle Steinblock",
        "sport": "climbing"
      }
    },
    {
      "type": "node",
      "id": 309146213,
      "lat": 48.2921245,
      "lon": 14.3042835,
      "tags": {
        "addr:city": "Linz",
        "addr:country": "AT",
        "addr:housenumber": "44",
        "addr:postcode": "4020",
        "addr:street": "Hamerlingstraße",
        "leisure": "sports_centre",
        "name": "Kieser Training Linz",
        "operator": "Kieser Training"
      }
    },
    {
      "type": "node",
      "id": 322669147,
      "lat": 48.2017800,
      "lon": 15.6255360,
      "tags": {
        "leisure": "sports_centre",
        "name": "life",
        "sport": "gymnastics"
      }
    },
    {
      "type": "node",
      "id": 336038681,
      "lat": 48.1649145,
      "lon": 16.4263169,
      "tags": {
        "addr:city": "Wien",
        "addr:housenumber": "211",
        "addr:postcode": "1110",
        "addr:street": "Simmeringer Hauptstraße",
        "fee": "yes",
        "leisure": "sports_centre",
        "name": "FitCom",
        "opening_hours": "Mo-Fr 08:00-22:00, Sa+So 08:00-20:00",
        "sport": "fitness",
        "website": "http://fit-com.at/",
        "wheelchair": "yes"
      }
    },
    {
      "type": "node",
      "id": 344667725,
      "lat": 48.2071981,
      "lon": 16.3867907,
      "tags": {
        "addr:city": "Wien",
        "addr:country": "AT",
        "addr:floor": "0",
        "addr:housenumber": "1",
        "addr:postcode": "1030",
        "addr:street": "Invalidenstraße",
        "check_date": "2025-10-31",
        "leisure": "sports_centre",
        "level": "0",
        "name": "Supercycle",
        "sport": "cycling",
        "website": "https://www.supercycle.at"
      }
    },
    {
      "type": "node",
      "id": 349752624,
      "lat": 48.4169151,
      "lon": 14.2785049,
      "tags": {
        "leisure": "sports_centre",
        "name": "Kirchschlag",
        "sport": "skiing"
      }
    },
    {
      "type": "node",
      "id": 353471575,
      "lat": 48.4164258,
      "lon": 14.6111541,
      "tags": {
        "leisure": "sports_centre",
        "name": "Hallenbad Gutau",
        "operator": "Gemeinde Gutau",
        "operator:type": "government",
        "sport": "swimming",
        "water_park": "indoor"
      }
    },
    {
      "type": "node",
      "id": 355617314,
      "lat": 46.6088069,
      "lon": 14.4669481,
      "tags": {
        "leisure": "sports_centre",
        "name": "Sporthalle Grafenstein",
        "sport": "multi"
      }
    },
    {
      "type": "node",
      "id": 367865334,
      "lat": 47.9716585,
      "lon": 16.2211137,
      "tags": {
        "leisure": "sports_centre",
        "name": "Thermenhalle",
        "source": "knowledge",
        "sport": "handball"
      }
    },
    {
      "type": "node",
      "id": 367902903,
      "lat": 47.9690366,
      "lon": 16.2206161,
      "tags": {
        "leisure": "sports_centre",
        "name": "TSC Allegro",
        "sport": "dancing"
      }
    },
    {
      "type": "node",
      "id": 373090546,
      "lat": 47.1946627,
      "lon": 15.6334272,
      "tags": {
        "leisure": "sports_centre",
        "name": "SERA FIT und SERA MED Fitnessstudio und Gesundheitszentrum"
      }
    },
    {
      "type": "node",
      "id": 376818122,
      "lat": 47.1082128,
      "lon": 11.3039123,
      "tags": {
        "leisure": "sports_centre",
        "name": "Freizeitzentrum Neustift",
        "opening_hours": "May 02-24 off",
        "sport": "billard",
        "wheelchair": "no"
      }
    },
    {
      "type": "node",
      "id": 387991750,
      "lat": 48.2936148,
      "lon": 13.2823498,
      "tags": {
        "leisure": "sports_centre",
        "name": "Mehrzweckhalle",
        "sport": "multi"
      }
    },
    {
      "type": "node",
      "id": 392031212,
      "lat": 48.2605286,
      "lon": 16.4027685,
      "tags": {
        "addr:city": "Wien",
        "addr:country": "AT",
        "addr:housenumber": "4",
        "addr:postcode": "1210",
        "addr:street": "Pitkagasse",
        "at_bev:addr_date": "2018-10-01",
        "leisure": "sports_centre",
        "name": "Bowlingcenter Floridsdorf",
        "sport": "10pin"
      }
    },
    {
      "type": "node",
      "id": 396724487,
      "lat": 47.2582117,
      "lon": 11.3558343,
      "tags": {
        "leisure": "sports_centre",
        "name": "Tennishalle Penz",
        "sport": "tennis",
        "wheelchair": "yes"
      }
    },
    {
      "type": "node",
      "id": 410741382,
      "lat": 47.1128696,
      "lon": 14.1773272,
      "tags": {
        "addr:housenumber": "13a",
        "addr:postcode": "8850",
        "addr:street": "Bundesstraße",
        "leisure": "sports_centre",
        "name": "WM-Halle",
        "wheelchair": "no"
      }
    },
    {
      "type": "node",
      "id": 431012297,
      "lat": 48.2273646,
      "lon": 16.7001758,
      "tags": {
        "addr:housename": "Waldstadion",
        "addr:housenumber": "1",
        "addr:postcode": "2285",
        "addr:street": "Flurgasse",
        "leisure": "sports_centre",
        "name": "Waldstadion",
        "sport": "soccer"
      }
    },
    {
      "type": "node",
      "id": 443435374,
      "lat": 48.1147250,
      "lon": 16.7136730,
      "tags": {
        "addr:city": "Haslau an der Donau",
        "addr:country": "AT",
        "addr:housenumber": "8",
        "addr:postcode": "2402",
        "addr:street": "Bahnstraße",
        "at_bev:addr_date": "2020-10-01",
        "leisure": "sports_centre",
        "name": "Donauhalle"
      }
    },
    {
      "type": "node",
      "id": 447860982,
      "lat": 47.8717556,
      "lon": 16.3745097,
      "tags": {
        "leisure": "sports_centre",
        "name": "TC Neufeld",
        "sport": "tennis"
      }
    },
    {
      "type": "node",
      "id": 452872711,
      "lat": 47.8787941,
      "lon": 16.3793956,
      "tags": {
        "leisure": "sports_centre",
        "name": "ASV Ebenfurth"
      }
    },
    {
      "type": "node",
      "id": 475986828,
      "lat": 47.9853499,
      "lon": 12.9192865,
      "tags": {
        "leisure": "sports_centre",
        "name": "Turnhalle"
      }
    },
    {
      "type": "node",
      "id": 479165013,
      "lat": 48.5760195,
      "lon": 16.6381608,
      "tags": {
        "addr:city": "Wilfersdorf",
        "addr:country": "AT",
        "addr:housenumber": "5",
        "addr:postcode": "2193",
        "addr:street": "Mühlstraße",
        "contact:email": "tennis@hofer.net",
        "contact:phone": "+43 2573 2870",
        "contact:website": "http://www.hofer.net/?page_id=370",
        "leisure": "sports_centre",
        "name": "Hofer Sportzentrum",
        "sport": "tennis;squash;gymnastics"
      }
    },
    {
      "type": "node",
      "id": 483329624,
      "lat": 47.2703872,
      "lon": 11.8465197,
      "tags": {
        "amenity": "ski_school",
        "leisure": "sports_centre",
        "name": "Skischule Hochzillertal",
        "phone": "+43 5283 2822 0",
        "website": "https://www.hochzillertal.at/de/",
        "wheelchair": "no"
      }
    },
    {
      "type": "node",
      "id": 540754967,
      "lat": 46.6295321,
      "lon": 13.8267969,
      "tags": {
        "leisure": "sports_centre",
        "name": "Body & Sun",
        "operator": "Beauty Betriebs GMBH",
        "phone": "+43 4242 55551",
        "website": "https://www.bodyandsun.at/"
      }
    },
    {
      "type": "node",
      "id": 550232384,
      "lat": 47.1962277,
      "lon": 14.7469002,
      "tags": {
        "leisure": "stadium",
        "name": "Sportzentrum Zeltweg"
      }
    },
    {
      "type": "node",
      "id": 561074702,
      "lat": 48.0588276,
      "lon": 14.4559671,
      "tags": {
        "leisure": "sports_centre",
        "name": "Go cart track",
        "sport": "karting"
      }
    },
    {
      "type": "node",
      "id": 566992033,
      "lat": 48.2137997,
      "lon": 16.3589948,
      "tags": {
        "addr:city": "Wien",
        "addr:country": "AT",
        "addr:housenumber": "17",
        "addr:postcode": "1010",
        "addr:street": "Reichsratsstraße",
        "leisure": "sports_centre",
        "name": "YOUNG-UNG Taekwondo",
        "wheelchair": "limited"
      }
    },
    {
      "type": "node",
      "id": 582476607,
      "lat": 48.5714509,
      "lon": 14.9733089,
      "tags": {
        "leisure": "sports_centre",
        "name": "Bodyland",
        "website": "https://www.body-land.at/"
      }
    },
    {
      "type": "node",
      "id": 588402695,
      "lat": 46.5283913,
      "lon": 14.3045701,
      "tags": {
        "leisure": "sports_centre",
        "name": "Ballspielhalle Ferlach",
        "sport": "handball"
      }
    },
    {
      "type": "node",
      "id": 600318645,
      "lat": 48.2264468,
      "lon": 16.3319823,
      "tags": {
        "addr:city": "Wien",
        "addr:country": "AT",
        "addr:housenumber": "74",
        "addr:postcode": "1180",
        "addr:street": "Kreuzgasse",
        "description": "Sportstätte des Universitätssportinstituts Wien",
        "leisure": "sports_centre",
        "name": "USI-Sportstätte Kreuzgasse",
        "website": "https://www.usi.at/de/sportstaetten/kreuzgasse/",
        "wheelchair": "yes"
      }
    },
    {
      "type": "node",
      "id": 617056286,
      "lat": 47.3707876,
      "lon": 11.1530922,
      "tags": {
        "addr:city": "Leutasch",
        "addr:country": "AT",
        "addr:housenumber": "275b",
        "addr:place": "Weidach",
        "addr:postcode": "6105",
        "amenity": "ski_school",
        "email": "info@skischule-leutasch.at",
        "leisure": "sports_centre",
        "name": "Skischule Leutasch Skiverleih",
        "opening_hours": "Mo-Su 09:00-17:00",
        "payment:cash": "yes",
        "payment:maestro": "yes",
        "payment:mastercard": "yes",
        "payment:visa": "yes",
        "phone": "+43 5214 6762",
        "sport": "skiing;cross_country_skiing",
        "website": "https://www.skischule-leutasch.at/"
      }
    },
    {
      "type": "node",
      "id": 620077315,
      "lat": 47.4099149,
      "lon": 9.6706620,
      "tags": {
        "leisure": "sports_centre",
        "name": "SVÖ Lustenau",
        "sport": "dog_sports;dog_training"
      }
    },
    {
      "type": "node",
      "id": 660952694,
      "lat": 48.1319081,
      "lon": 16.2806287,
      "tags": {
        "addr:city": "Perchtoldsdorf",
        "addr:country": "AT",
        "addr:housenumber": "109",
        "addr:postcode": "2380",
        "addr:street": "Wiener Gasse",
        "leisure": "sports_centre",
        "name": "Young-Ung Taekwondo",
        "phone": "+43 660 517 47 87",
        "sport": "taekwondo",
        "website": "https://www.yu-taekwondo.at/perchtoldsdorf/2380",
        "wheelchair": "no"
      }
    },
    {
      "type": "node",
      "id": 671352043,
      "lat": 48.2015766,
      "lon": 16.3320058,
      "tags": {
        "leisure": "sports_centre",
        "name": "Halle B",
        "sport": "multi"
      }
    },
    {
      "type": "node",
      "id": 671352056,
      "lat": 48.2015337,
      "lon": 16.3326760,
      "tags": {
        "leisure": "sports_centre",
        "name": "Halle A",
        "sport": "multi"
      }
    },
    {
      "type": "node",
      "id": 712567864,
      "lat": 47.1996180,
      "lon": 15.3311825,
      "tags": {
        "addr:city": "Deutschfeistritz",
        "addr:postcode": "8121",
        "addr:street": "Ferdinandgasse",
        "leisure": "sports_centre",
        "name": "Freizeitzentrum"
      }
    },
    {
      "type": "node",
      "id": 718391141,
      "lat": 48.4153706,
      "lon": 14.2716968,
      "tags": {
        "email": "office@ralfundwalter.at",
        "leisure": "sports_centre",
        "name": "Hochseil-Klettergarten",
        "phone": "+43 7215 3747",
        "sport": "climbing_adventure",
        "website": "https://www.ralfundwalter.at/"
      }
    },
    {
      "type": "node",
      "id": 725017330,
      "lat": 46.6157440,
      "lon": 13.8666393,
      "tags": {
        "addr:city": "Villach",
        "addr:country": "AT",
        "addr:housenumber": "29",
        "addr:postcode": "9500",
        "addr:street": "St.Magdalener Straße",
        "at_bev:addr_date": "2017-04-07",
        "leisure": "sports_centre",
        "name": "Fitness Injoy"
      }
    },
    {
      "type": "node",
      "id": 725423043,
      "lat": 48.3064232,
      "lon": 16.3545211,
      "tags": {
        "addr:city": "Langenzersdorf",
        "addr:country": "AT",
        "addr:housenumber": "19-21",
        "addr:postcode": "2103",
        "addr:street": "Klosterneuburger Straße",
        "contact:email": "office@utk-langenzersdorf.at",
        "contact:phone": "+43 680 2486668",
        "contact:website": "www.utk-langenzersdorf.at/",
        "leisure": "sports_centre",
        "name": "Union Tennisklub Langenzersdorf",
        "sport": "tennis"
      }
    },
    {
      "type": "node",
      "id": 729031355,
      "lat": 48.3060886,
      "lon": 16.3541299,
      "tags": {
        "addr:city": "Langenzersdorf",
        "addr:country": "AT",
        "addr:housenumber": "21-23",
        "addr:postcode": "2103",
        "addr:street": "Klosterneuburger Straße",
        "contact:website": "www.svle.at",
        "leisure": "sports_centre",
        "name": "Sportverein Langenzersdorf",
        "sport": "soccer"
      }
    },
    {
      "type": "node",
      "id": 765548662,
      "lat": 47.4782930,
      "lon": 12.6434297,
      "tags": {
        "ele": "1036",
        "leisure": "stadium",
        "name": "SGS Schießanlage"
      }
    },
    {
      "type": "node",
      "id": 765548848,
      "lat": 47.4863092,
      "lon": 12.6609724,
      "tags": {
        "ele": "1129",
        "leisure": "sports_centre",
        "name": "Schüttachstall",
        "wpt_description": "23-MAI-10 10:04:30",
        "wpt_symbol": "Military"
      }
    },
    {
      "type": "node",
      "id": 778162157,
      "lat": 47.4879434,
      "lon": 9.6826588,
      "tags": {
        "addr:city": "Hard",
        "addr:country": "AT",
        "addr:housenumber": "87",
        "addr:postcode": "6971",
        "addr:street": "Allmendstraße",
        "leisure": "sports_centre",
        "name": "ATSV-Kegelbahn",
        "sport": "9pin"
      }
    },
    {
      "type": "node",
      "id": 794570861,
      "lat": 48.1764778,
      "lon": 16.3634735,
      "tags": {
        "leisure": "sports_centre",
        "name": "Box-Union Favoriten",
        "sport": "boxing",
        "website": "https://www.boxgym.at/"
      }
    },
    {
      "type": "node",
      "id": 807587684,
      "lat": 48.1821088,
      "lon": 16.3603769,
      "tags": {
        "access": "permit",
        "addr:city": "Wien",
        "addr:country": "AT",
        "addr:housenumber": "3",
        "addr:postcode": "1050",
        "addr:street": "Hollgasse",
        "description": "Heimhalle vom Handballclub Fivers WAT Margareten und von MGA Fivers Handball.",
        "leisure": "sports_centre",
        "name": "Sporthalle Margareten",
        "operator": "Stadt Wien",
        "operator:type": "government",
        "sport": "multi;handball;basketball;futsal",
        "website": "https://www.wien.gv.at/freizeit/sportamt/sportstaetten/hallen/hollgasse.html"
      }
    },
    {
      "type": "node",
      "id": 808416718,
      "lat": 47.5884225,
      "lon": 12.6946919,
      "tags": {
        "leisure": "sports_centre",
        "name": "Kanu-Club Braunau",
        "sport": "canoe"
      }
    },
    {
      "type": "node",
      "id": 808605469,
      "lat": 48.0707024,
      "lon": 14.7516937,
      "tags": {
        "leisure": "sports_centre",
        "name": "Sporthalle"
      }
    },
    {
      "type": "node",
      "id": 820072810,
      "lat": 47.3144533,
      "lon": 10.8425440,
      "tags": {
        "leisure": "sports_centre",
        "name": "Isländer Reithof"
      }
    },
    {
      "type": "node",
      "id": 837165395,
      "lat": 47.8310116,
      "lon": 16.3823096,
      "tags": {
        "addr:city": "Zillingtal",
        "addr:country": "AT",
        "addr:housenumber": "21",
        "addr:postcode": "7035",
        "addr:street": "Akaziensiedlung 3. Straße",
        "at_bev:addr_date": "2023-10-01",
        "leisure": "sports_centre",
        "name": "Tenniscenter Steinbrunner See",
        "sport": "tennis"
      }
    },
    {
      "type": "node",
      "id": 886036064,
      "lat": 48.4761009,
      "lon": 16.4362842,
      "tags": {
        "addr:city": "Oberkreuzstetten",
        "addr:country": "AT",
        "addr:place": "Am Ochsenberg",
        "addr:postcode": "2124",
        "contact:email": "jfreudhofmaier@aon.at",
        "contact:phone": "+43 664 4989810",
        "contact:website": "http://www.ochys.at",
        "leisure": "sports_centre",
        "name": "Ochys Waldfreizeitpark Kreuzstetten",
        "operator": "Freudhofmaier KG",
        "sport": "climbing",
        "tourism": "attraction",
        "wheelchair": "limited"
      }
    },
    {
      "type": "node",
      "id": 898062715,
      "lat": 48.1416064,
      "lon": 16.4747685,
      "tags": {
        "addr:country": "AT",
        "addr:housenumber": "11",
        "addr:postcode": "2320",
        "addr:street": "Wiener Straße",
        "description": "(0",
        "leisure": "sports_centre",
        "name": "Miss Sporty"
      }
    },
    {
      "type": "node",
      "id": 899299034,
      "lat": 47.2760426,
      "lon": 15.8582399,
      "tags": {
        "leisure": "sports_centre",
        "name": "Reitsportzentrum Pölzler",
        "phone": "+436803074960",
        "sport": "equestrian",
        "website": "http://www.reitsportzentrum-schoenegg.at"
      }
    },
    {
      "type": "node",
      "id": 914278473,
      "lat": 47.8043725,
      "lon": 13.0195078,
      "tags": {
        "leisure": "sports_centre",
        "name": "ALFA Sports & Spa",
        "wheelchair": "limited"
      }
    },
    {
      "type": "node",
      "id": 920147244,
      "lat": 47.9806886,
      "lon": 16.3853907,
      "tags": {
        "leisure": "sports_centre",
        "name": "Magna Racino Ebreichsdorf",
        "sport": "horse_racing"
      }
    },
    {
      "type": "node",
      "id": 921126754,
      "lat": 48.1812044,
      "lon": 16.3716971,
      "tags": {
        "leisure": "sports_centre",
        "name": "Tauchklub U39",
        "sport": "diving",
        "website": "www.u39.at"
      }
    },
    {
      "type": "node",
      "id": 924763158,
      "lat": 48.1788816,
      "lon": 16.3686961,
      "tags": {
        "description": "Fitnesscenter + Solarium",
        "leisure": "sports_centre",
        "name": "Lemperg",
        "shop": "beauty",
        "sport": "gymnastics"
      }
    },
    {
      "type": "node",
      "id": 952241894,
      "lat": 48.3049585,
      "lon": 14.2903033,
      "tags": {
        "addr:city": "Linz",
        "addr:housenumber": "2-4",
        "addr:postcode": "4020",
        "addr:street": "Dametzstraße",
        "contact:email": "linz-zentrum@happyfit.eu",
        "contact:fax": "+43 732 78218211",
        "contact:phone": "+43 732 782182",
        "contact:website": "http://www.happyfit.eu",
        "description": "Fitness Studio",
        "leisure": "sports_centre",
        "name": "HappyFit",
        "opening_hours": "Mo-Fr 07:00-23:00; Sa-Su 09:00-20:00",
        "wheelchair": "no",
        "wheelchair:description": "Trainingsbereich, Garderoben, Rolli-WC im ersten Stock, aber ohne LIft!"
      }
    },
    {
      "type": "node",
      "id": 954882933,
      "lat": 48.2691299,
      "lon": 14.5277078,
      "tags": {
        "leisure": "sports_centre",
        "name": "Union Ried in der Riedmark"
      }
    },
    {
      "type": "node",
      "id": 956080279,
      "lat": 48.2016396,
      "lon": 16.3815025,
      "tags": {
        "addr:city": "Wien",
        "addr:country": "AT",
        "addr:housenumber": "28",
        "addr:postcode": "1030",
        "addr:street": "Beatrixgasse",
        "leisure": "sports_centre",
        "name": "byoga",
        "phone": "+43 664 8372209",
        "sport": "yoga",
        "website": "https://www.byoga.at/"
      }
    },
    {
      "type": "node",
      "id": 956080359,
      "lat": 48.2032147,
      "lon": 16.3821122,
      "tags": {
        "addr:city": "Wien",
        "addr:country": "AT",
        "addr:housenumber": "3",
        "addr:postcode": "1030",
        "addr:street": "Am Heumarkt",
        "leisure": "sports_centre",
        "name": "VC Ving Chun Kampfkunst Akademie",
        "sport": "martial_arts"
      }
    },
    {
      "type": "node",
      "id": 956080362,
      "lat": 48.2024829,
      "lon": 16.3838491,
      "tags": {
        "addr:city": "Wien",
        "addr:country": "AT",
        "addr:housenumber": "19",
        "addr:postcode": "1030",
        "addr:street": "Beatrixgasse",
        "check_date": "2022-09-10",
        "check_date:opening_hours": "2023-09-11",
        "healthcare": "physiotherapist",
        "leisure": "sports_centre",
        "level": "0",
        "name": "beaktiv",
        "opening_hours:signed": "no",
        "website": "https://www.beaktiv.at/"
      }
    },
    {
      "type": "node",
      "id": 967908668,
      "lat": 48.2712696,
      "lon": 14.2472080,
      "tags": {
        "contact:phone": "+43 699 10644413",
        "description": "Personal Trainingsstudio; GAT Institut",
        "leisure": "sports_centre",
        "name": "Body Vital",
        "operator": "Dagmar Pichlbauer"
      }
    },
    {
      "type": "node",
      "id": 1004425908,
      "lat": 48.1969161,
      "lon": 14.2472477,
      "tags": {
        "contact:email": "office@happyfit.at",
        "contact:phone": "+43 7229 89089",
        "contact:website": "http://www.happyfit.at",
        "description": "Fitness Studio",
        "leisure": "sports_centre",
        "name": "HappyFit",
        "opening_hours": "Mo-Fr 09:00-19:00; Sa 09:00-18:00",
        "operator": "Carmen Esletzbichler"
      }
    },
    {
      "type": "node",
      "id": 1044735501,
      "lat": 47.3957757,
      "lon": 13.6948783,
      "tags": {
        "leisure": "sports_centre",
        "name": "Fitness Studio"
      }
    },
    {
      "type": "node",
      "id": 1044741584,
      "lat": 47.4222218,
      "lon": 13.6516984,
      "tags": {
        "addr:city": "Ramsau am Dachstein",
        "addr:postcode": "8972",
        "addr:street": "Ramsauer Landesstraße",
        "building": "yes",
        "leisure": "sports_centre",
        "name": "Internationales Trainingszentrum",
        "sport": "climbing"
      }
    },
    {
      "type": "node",
      "id": 1082165957,
      "lat": 47.6834773,
      "lon": 13.0903898,
      "tags": {
        "addr:country": "AT",
        "addr:street": "Bürgerspitalplatz",
        "leisure": "sports_centre",
        "name": "Halleiner Turnverein",
        "source": "Exkursion",
        "sport": "gymnastics",
        "wheelchair": "no"
      }
    },
    {
      "type": "node",
      "id": 1088060121,
      "lat": 48.3597954,
      "lon": 14.2569467,
      "tags": {
        "leisure": "sports_centre",
        "name": "Turnhalle Lichtenberg",
        "sport": "multi",
        "wheelchair": "limited"
      }
    },
    {
      "type": "node",
      "id": 1140716899,
      "lat": 47.9621364,
      "lon": 16.5976923,
      "tags": {
        "leisure": "sports_centre",
        "name": "UNION Schützenklub Mannersdorf",
        "operator": "UNION Schützenklub Mannersdorf",
        "operator:type": "community",
        "sport": "shooting",
        "type": "range",
        "website": "https://sportunion.at/vereine/union-schuetzenklub-mannersdorf/"
      }
    },
    {
      "type": "node",
      "id": 1158033019,
      "lat": 48.2087878,
      "lon": 16.3767623,
      "tags": {
        "addr:city": "Wien",
        "addr:country": "AT",
        "addr:housenumber": "16",
        "addr:postcode": "1010",
        "addr:street": "Bäckerstraße",
        "climbing:bolted": "yes",
        "climbing:boulder": "yes",
        "climbing:grade:uiaa:max": "VIII",
        "climbing:grade:uiaa:min": "III",
        "climbing:length:max": "15",
        "climbing:multipitch": "no",
        "climbing:sport": "yes",
        "climbing:toprope": "yes",
        "contact:phone": "+43 1 5123844 77",
        "fee": "yes",
        "leisure": "sports_centre",
        "name": "ÖTK-Kletterhalle",
        "opening_hours": "Mo 10:30-22:00; Tu-Fr 09:00-22:00; Sa-Su, PH 13:00-22:00",
        "operator": "Österreichischer Touristenklub",
        "sport": "climbing;dancing;bouldering",
        "website": "http://www.kletterhalle.at",
        "wheelchair": "yes"
      }
    },
    {
      "type": "node",
      "id": 1166326783,
      "lat": 48.2522874,
      "lon": 16.3649563,
      "tags": {
        "addr:city": "Wien",
        "addr:country": "AT",
        "addr:housenumber": "86",
        "addr:postcode": "1190",
        "addr:street": "Heiligenstädter Straße",
        "addr:unit": "Innenhof",
        "description": "Squash, Indoorgolf, Pilates",
        "fee": "yes",
        "leisure": "sports_centre",
        "name": "Club 19",
        "opening_hours": "Mo-Fr 12:00-22:00; Sa-Su, PH 10:00-22:00",
        "short_name": "C19",
        "sport": "gymnastics;squash;minigolf",
        "website": "https://www.c19.at/"
      }
    },
    {
      "type": "node",
      "id": 1166347417,
      "lat": 48.2497281,
      "lon": 16.3625587,
      "tags": {
        "leisure": "sports_centre",
        "name": "Fitnesscenter",
        "sport": "gymnastics"
      }
    },
    {
      "type": "node",
      "id": 1215859670,
      "lat": 48.3199557,
      "lon": 14.2902318,
      "tags": {
        "leisure": "sports_centre",
        "name": "EWTO",
        "sport": "martial_arts"
      }
    },
    {
      "type": "node",
      "id": 1221471786,
      "lat": 47.2908384,
      "lon": 11.5878286,
      "tags": {
        "addr:city": "Wattens",
        "addr:country": "AT",
        "addr:housenumber": "9",
        "addr:postcode": "6112",
        "addr:street": "Egger-Lienz-Straße",
        "leisure": "sports_centre",
        "name": "Kletterarena Wattens",
        "phone": "+43 5224 5858",
        "source": "Website",
        "sport": "climbing",
        "website": "https://www.kletterarena-wattens.at"
      }
    },
    {
      "type": "node",
      "id": 1230571037,
      "lat": 48.2373557,
      "lon": 16.3864737,
      "tags": {
        "addr:city": "Wien",
        "addr:country": "AT",
        "addr:housenumber": "65",
        "addr:postcode": "1200",
        "addr:street": "Vorgartenstraße",
        "leisure": "sports_centre",
        "name": "Vital Woman",
        "source": "http://www.vital-woman.at/",
        "wheelchair": "no"
      }
    },
    {
      "type": "node",
      "id": 1239544241,
      "lat": 46.5973978,
      "lon": 13.9430156,
      "tags": {
        "leisure": "sports_centre",
        "name": "Kegelparadies St. Niklas"
      }
    },
    {
      "type": "node",
      "id": 1240278028,
      "lat": 46.6532821,
      "lon": 13.9337905,
      "tags": {
        "addr:city": "Landskron",
        "addr:housenumber": "243",
        "addr:postcode": "9523",
        "addr:street": "Ossiachersee Süduferstraße",
        "alt_name": "Minigolf - Seecamping Berghof",
        "leisure": "sports_centre",
        "name": "Wassersportzentrum Berghof",
        "website": "https://www.seecamping-berghof.at"
      }
    },
    {
      "type": "node",
      "id": 1240291496,
      "lat": 46.5862872,
      "lon": 13.8295602,
      "tags": {
        "addr:city": "Warmbad-Villach",
        "addr:housenumber": "16",
        "addr:postcode": "9504",
        "addr:street": "Warmbachweg",
        "description": "Der Sportpark liegt mitten im Grünen mit herrlichen Blick auf die umliegende Bergwelt. Profis, Amateuren und Anfängern stehen 10 gepflegte Sandplätze im Freien und 3 Hallenplätze zur Verfügung. Tennisschule für Gruppen- oder Einzeltraining.",
        "leisure": "sports_centre",
        "name": "Sportpark Warmbad-Villach",
        "phone": "+43 4242 32564",
        "sport": "tennis",
        "website": "https://www.sportwarmbad.at/"
      }
    },
    {
      "type": "node",
      "id": 1240293182,
      "lat": 46.6048902,
      "lon": 13.8243882,
      "tags": {
        "addr:city": "Villach",
        "addr:housenumber": "10",
        "addr:postcode": "9500",
        "addr:street": "Bachlerteichweg",
        "leisure": "sports_centre",
        "name": "Tennisanlage TC VSV",
        "website": "https://www.vsv-tennis.at/"
      }
    },
    {
      "type": "node",
      "id": 1240300818,
      "lat": 46.5925290,
      "lon": 13.8313796,
      "tags": {
        "addr:city": "Villach",
        "addr:district": "Warmbad",
        "addr:housenumber": "77",
        "addr:postcode": "9504",
        "addr:street": "Kumpfallee",
        "leisure": "sports_centre",
        "name": "ASKÖ Villach Warmbad",
        "sport": "tennis"
      }
    },
    {
      "type": "node",
      "id": 1240302294,
      "lat": 46.6297446,
      "lon": 13.8597202,
      "tags": {
        "addr:city": "Villach",
        "addr:housenumber": "5",
        "addr:postcode": "9500",
        "addr:street": "Campingweg",
        "leisure": "sports_centre",
        "name": "ESV Admira Villach St. Leonhard",
        "sport": "tennis"
      }
    },
    {
      "type": "node",
      "id": 1240524846,
      "lat": 46.5879973,
      "lon": 13.8325206,
      "tags": {
        "addr:housename": "Reitsportanlage Warmbad",
        "addr:housenumber": "130",
        "addr:postcode": "9504",
        "addr:street": "Auenweg",
        "leisure": "sports_centre",
        "name": "Reitsportanlage Warmbad"
      }
    },
    {
      "type": "node",
      "id": 1240530795,
      "lat": 46.6090512,
      "lon": 13.8084750,
      "tags": {
        "addr:housename": "Reitschule Sumperhof",
        "addr:housenumber": "123",
        "addr:postcode": "9500",
        "addr:street": "Goritschacher Weg",
        "leisure": "sports_centre",
        "name": "Reitschule Sumperhof"
      }
    },
    {
      "type": "node",
      "id": 1240532227,
      "lat": 46.5719223,
      "lon": 13.8080125,
      "tags": {
        "addr:housename": "Reitgut Federaun",
        "addr:housenumber": "3",
        "addr:postcode": "9601",
        "addr:street": "Schütter Straße",
        "leisure": "sports_centre",
        "name": "Reitgut Federaun"
      }
    },
    {
      "type": "node",
      "id": 1240595941,
      "lat": 46.6061809,
      "lon": 13.9089830,
      "tags": {
        "addr:city": "Villach",
        "addr:district": "St. Magdalen",
        "addr:housenumber": "20",
        "addr:postcode": "9524",
        "addr:street": "Flurweg",
        "leisure": "sports_centre",
        "name": "Tennisanlage Silbersee",
        "sport": "tennis"
      }
    },
    {
      "type": "node",
      "id": 1240598032,
      "lat": 46.5980989,
      "lon": 13.8748784,
      "tags": {
        "addr:city": "Villach",
        "addr:housenumber": "80",
        "addr:postcode": "9500",
        "addr:street": "Abstimmungsstraße",
        "leisure": "sports_centre",
        "name": "Tennisanlage SV Maria Gail",
        "sport": "tennis"
      }
    },
    {
      "type": "node",
      "id": 1240608595,
      "lat": 46.6529195,
      "lon": 13.9322931,
      "tags": {
        "addr:city": "Villach",
        "addr:district": "Landskron",
        "addr:housenumber": "241",
        "addr:postcode": "9523",
        "addr:street": "Ossiachersee Süduferstraße",
        "leisure": "sports_centre",
        "name": "Tennisanlage Berghof",
        "sport": "tennis"
      }
    },
    {
      "type": "node",
      "id": 1240621715,
      "lat": 46.5844065,
      "lon": 13.9195509,
      "tags": {
        "addr:city": "Villach",
        "addr:district": "Drobollach",
        "addr:housenumber": "61",
        "addr:postcode": "9580",
        "addr:street": "Strandbadstraße",
        "leisure": "sports_centre",
        "name": "Fun & Sport Park Drobollach",
        "sport": "tennis"
      }
    },
    {
      "type": "node",
      "id": 1240621722,
      "lat": 46.5875693,
      "lon": 13.9141929,
      "tags": {
        "addr:city": "Villach",
        "addr:district": "Drobollach",
        "addr:housenumber": "47",
        "addr:postcode": "9580",
        "addr:street": "Seeblickstraße",
        "leisure": "sports_centre",
        "name": "Tennisplätze Bernold",
        "sport": "tennis"
      }
    },
    {
      "type": "node",
      "id": 1240621733,
      "lat": 46.5841724,
      "lon": 13.9173032,
      "tags": {
        "addr:city": "Villach",
        "addr:district": "Drobollach",
        "addr:housenumber": "69",
        "addr:postcode": "9580",
        "addr:street": "Strandbadstraße",
        "leisure": "sports_centre",
        "name": "Tennisplatz Ressmann",
        "sport": "tennis"
      }
    },
    {
      "type": "node",
      "id": 1240626239,
      "lat": 46.6507344,
      "lon": 13.9043689,
      "tags": {
        "addr:city": "Villach",
        "addr:district": "Landskron",
        "addr:housenumber": "75",
        "addr:postcode": "9523",
        "addr:street": "Ossiachersee Süduferstraße",
        "leisure": "sports_centre",
        "name": "Tennisanlage Haus Landskron",
        "sport": "tennis"
      }
    },
    {
      "type": "node",
      "id": 1240628611,
      "lat": 46.5981511,
      "lon": 13.9434132,
      "tags": {
        "addr:city": "Villach",
        "addr:district": "Drobollach",
        "addr:housenumber": "22",
        "addr:postcode": "9580",
        "addr:street": "St. Niklas-Straße",
        "leisure": "sports_centre",
        "name": "Tennisplätze Legrand",
        "sport": "tennis"
      }
    },
    {
      "type": "node",
      "id": 1240630258,
      "lat": 46.5901833,
      "lon": 13.9162429,
      "tags": {
        "addr:city": "Villach",
        "addr:district": "Drobollach",
        "addr:housenumber": "14",
        "addr:postcode": "9580",
        "addr:street": "Fasanenweg",
        "leisure": "sports_centre",
        "name": "Tennisplätze Baby- und Kindererlebnis- Clubhotel Schönblick",
        "sport": "tennis"
      }
    },
    {
      "type": "node",
      "id": 1259895023,
      "lat": 46.9304690,
      "lon": 15.6645381,
      "tags": {
        "leisure": "sports_centre",
        "name": "Sportzentrum kirchbach"
      }
    },
    {
      "type": "node",
      "id": 1273226271,
      "lat": 48.2155344,
      "lon": 16.4743932,
      "tags": {
        "leisure": "sports_centre",
        "name": "Mrs. Sporty",
        "sport": "gymnastics"
      }
    },
    {
      "type": "node",
      "id": 1305198255,
      "lat": 48.5586724,
      "lon": 15.0378296,
      "tags": {
        "leisure": "sports_centre",
        "name": "USC Etzen"
      }
    },
    {
      "type": "node",
      "id": 1305571222,
      "lat": 47.5243571,
      "lon": 12.2508912,
      "tags": {
        "leisure": "sports_centre",
        "name": "Schießstand Scheffau",
        "sport": "shooting"
      }
    },
    {
      "type": "node",
      "id": 1312105857,
      "lat": 46.6394067,
      "lon": 13.8863069,
      "tags": {
        "leisure": "sports_centre",
        "name": "INbewegung",
        "sport": "gymnastics"
      }
    },
    {
      "type": "node",
      "id": 1314752440,
      "lat": 48.1628956,
      "lon": 14.7078584,
      "tags": {
        "leisure": "sports_centre",
        "name": "Wassersportzentrum Wallsee"
      }
    },
    {
      "type": "node",
      "id": 1334357829,
      "lat": 47.4942394,
      "lon": 12.4248331,
      "tags": {
        "addr:city": "St. Johann in Tirol",
        "addr:country": "AT",
        "addr:housenumber": "21",
        "addr:postcode": "6380",
        "addr:street": "Hornweg",
        "leisure": "sports_centre",
        "name": "Hornpark",
        "source": "Lokalerhebung 2012-2019",
        "sport": "climbing",
        "website": "https://www.hornpark.at/"
      }
    },
    {
      "type": "node",
      "id": 1344908573,
      "lat": 47.2729586,
      "lon": 9.5913746,
      "tags": {
        "addr:city": "Feldkirch",
        "addr:country": "AT",
        "addr:housenumber": "2",
        "addr:postcode": "6800",
        "addr:street": "Münkafeld",
        "contact:email": "office@kartbahn-treff.at",
        "contact:phone": "+43 5522 22822",
        "leisure": "sports_centre",
        "name": "Kartbahn-Treff",
        "opening_hours": "Mo-Fr 17:00-22:00; Sa 14:00-22:00; Su,PH 14:00-21:00",
        "operator": "Kartbahn-Treff GmbH",
        "sport": "karting",
        "website": "https://www.kartbahn-treff.at/"
      }
    },
    {
      "type": "node",
      "id": 1365158973,
      "lat": 48.1346756,
      "lon": 16.2825884,
      "tags": {
        "fixme": "Der Badmintonverein \"Union Rot Weiss\" scheint die Sporthalle Liesing zwar für einen Teil ihrer Trainings zu nutzen, ist aber als Verein hier nicht ansässig?",
        "leisure": "sports_centre",
        "name": "Union Rot Weiss",
        "sport": "badminton",
        "website": "http://www.urw-badminton.at"
      }
    },
    {
      "type": "node",
      "id": 1365334751,
      "lat": 47.4942517,
      "lon": 16.2712788,
      "tags": {
        "leisure": "sports_centre",
        "name": "Weststadion Kirchschlag"
      }
    },
    {
      "type": "node",
      "id": 1366042875,
      "lat": 48.1701788,
      "lon": 14.8371689,
      "tags": {
        "leisure": "sports_centre",
        "name": "Sportplatz SKU Ardagger"
      }
    },
    {
      "type": "node",
      "id": 1374418556,
      "lat": 46.6339433,
      "lon": 14.1412309,
      "tags": {
        "leisure": "sports_centre",
        "name": "Badehaus Hotel Astoria",
        "sport": "swimming"
      }
    },
    {
      "type": "node",
      "id": 1377850526,
      "lat": 48.3459291,
      "lon": 14.1582754,
      "tags": {
        "leisure": "sports_centre",
        "name": "Sportpark"
      }
    },
    {
      "type": "node",
      "id": 1382833812,
      "lat": 47.4554307,
      "lon": 16.1851812,
      "tags": {
        "int_name": "Motocross track",
        "leisure": "sports_centre",
        "name": "Motocross track"
      }
    },
    {
      "type": "node",
      "id": 1411887794,
      "lat": 48.1566688,
      "lon": 13.8381551,
      "tags": {
        "leisure": "sports_centre",
        "name": "Sporthalle"
      }
    },
    {
      "type": "node",
      "id": 1417009156,
      "lat": 46.6233129,
      "lon": 14.3128570,
      "tags": {
        "addr:city": "Klagenfurt am Wörthersee",
        "addr:country": "AT",
        "addr:housenumber": "47",
        "addr:street": "8.-Mai-Straße",
        "addr:unit": "2",
        "leisure": "sports_centre",
        "name": "Lady fitness",
        "wheelchair": "yes"
      }
    },
    {
      "type": "node",
      "id": 1419896496,
      "lat": 48.2096738,
      "lon": 13.8046571,
      "tags": {
        "leisure": "sports_centre",
        "name": "SK Ford Danner Gallspach",
        "sport": "soccer"
      }
    },
    {
      "type": "node",
      "id": 1426907535,
      "lat": 48.1960881,
      "lon": 16.3444481,
      "tags": {
        "addr:city": "Wien",
        "addr:country": "AT",
        "addr:housenumber": "43",
        "addr:postcode": "1060",
        "addr:street": "Webgasse",
        "fixme": "check (website gibt es nicht mehr)",
        "leisure": "sports_centre",
        "level": "1",
        "name": "Be Fit",
        "sport": "gymnastics"
      }
    },
    {
      "type": "node",
      "id": 1431288977,
      "lat": 48.1344039,
      "lon": 16.1928472,
      "tags": {
        "addr:country": "AT",
        "addr:housenumber": "2",
        "addr:street": "Hirschentanzstraße",
        "leisure": "sports_centre",
        "name": "Sportplatz Breitenfurt",
        "sport": "multi"
      }
    },
    {
      "type": "node",
      "id": 1439055398,
      "lat": 48.1941122,
      "lon": 16.3592876,
      "tags": {
        "check_date": "2023-05-29",
        "leisure": "sports_centre",
        "name": "Fitnesscenter Mrs. Sporty",
        "opening_hours": "06:00-22:00",
        "phone": "+43 664 2303914",
        "website": "https://mrssporty.at/club342",
        "wheelchair": "no"
      }
    },
    {
      "type": "node",
      "id": 1439062276,
      "lat": 48.2373113,
      "lon": 16.3492322,
      "tags": {
        "leisure": "sports_centre",
        "name": "Sportunion Döbling"
      }
    },
    {
      "type": "node",
      "id": 1445268052,
      "lat": 46.6097021,
      "lon": 14.3009231,
      "tags": {
        "addr:city": "Klagenfurt am Wörthersee",
        "addr:country": "AT",
        "addr:housenumber": "99H",
        "addr:street": "Rosentaler Straße",
        "leisure": "sports_centre",
        "name": "Bibiane Fischer & Co KG",
        "wheelchair": "yes"
      }
    },
    {
      "type": "node",
      "id": 1446126642,
      "lat": 47.5189108,
      "lon": 16.1951988,
      "tags": {
        "leisure": "sports_centre",
        "name": "Sportplatz",
        "sport": "soccer"
      }
    },
    {
      "type": "node",
      "id": 1447683745,
      "lat": 47.5884678,
      "lon": 12.1675855,
      "tags": {
        "leisure": "sports_centre",
        "name": "Kufstein Arena/Sport- und Veranstaltunshalle Kufstein",
        "website": "https://www.arena.kufstein.at",
        "wikidata": "Q1791082",
        "wikipedia": "de:Kufstein Arena"
      }
    },
    {
      "type": "node",
      "id": 1454820129,
      "lat": 48.3016356,
      "lon": 14.6307075,
      "tags": {
        "leisure": "sports_centre",
        "name": "Kaolinum Hochseilgarten",
        "sport": "climbing_adventure",
        "type": "cliff",
        "url": "http://www.kaolinum.at/"
      }
    },
    {
      "type": "node",
      "id": 1466973196,
      "lat": 48.2219093,
      "lon": 16.3610962,
      "tags": {
        "leisure": "sports_centre",
        "name": "Yoga Center"
      }
    },
    {
      "type": "node",
      "id": 1467029619,
      "lat": 48.2261949,
      "lon": 16.3617623,
      "tags": {
        "addr:city": "Wien",
        "addr:country": "AT",
        "addr:housenumber": "3",
        "addr:postcode": "1090",
        "addr:street": "Julius-Tandler-Platz",
        "leisure": "sports_centre",
        "name": "Young-Ung Taekwondo",
        "sport": "taekwondo",
        "website": "https://yu-taekwondo.at/"
      }
    },
    {
      "type": "node",
      "id": 1467144768,
      "lat": 48.2082657,
      "lon": 16.3921837,
      "tags": {
        "leisure": "sports_centre",
        "name": "Vamakaula Tanz Yoga"
      }
    },
    {
      "type": "node",
      "id": 1467144770,
      "lat": 48.2072370,
      "lon": 16.3924036,
      "tags": {
        "leisure": "sports_centre",
        "name": "ASC Karate",
        "sport": "taekwondo"
      }
    },
    {
      "type": "node",
      "id": 1467188110,
      "lat": 48.2228750,
      "lon": 16.3608214,
      "tags": {
        "leisure": "sports_centre",
        "name": "Fitness 39"
      }
    },
    {
      "type": "node",
      "id": 1467216634,
      "lat": 48.2234448,
      "lon": 16.3616828,
      "tags": {
        "addr:city": "Wien",
        "addr:country": "AT",
        "addr:housenumber": "48",
        "addr:postcode": "1090",
        "addr:street": "Porzellangasse",
        "check_date": "2025-09-23",
        "leisure": "sports_centre",
        "name": "Tennisclub P48",
        "sport": "tennis",
        "website": "http://www.tennisclubp48.at"
      }
    },
    {
      "type": "node",
      "id": 1467231064,
      "lat": 48.2234297,
      "lon": 16.3613381,
      "tags": {
        "leisure": "sports_centre",
        "name": "Lifestyle Ladies"
      }
    },
    {
      "type": "node",
      "id": 1488571685,
      "lat": 48.3045363,
      "lon": 15.4761995,
      "tags": {
        "addr:city": "Gansbach",
        "addr:country": "AT",
        "addr:housenumber": "6",
        "addr:postcode": "3122",
        "addr:street": "Hainbachgasse",
        "leisure": "sports_centre",
        "name": "Fku Gansbach",
        "sport": "soccer",
        "wheelchair": "yes"
      }
    },
    {
      "type": "node",
      "id": 1489391371,
      "lat": 47.0457679,
      "lon": 15.4323203,
      "tags": {
        "addr:city": "Graz",
        "addr:country": "AT",
        "addr:housenumber": "21",
        "addr:postcode": "8020",
        "addr:street": "Lauzilgasse",
        "alt_name": "TWINS fitness and wellnessclub",
        "check_date": "2022-12-03",
        "contact:email": "office@twins.at",
        "contact:phone": "+43 316 261414-0",
        "contact:website": "https://www.twins.at/kontakt/",
        "leisure": "sports_centre",
        "name": "Twins Fitnesscenter",
        "opening_hours": "Mo-Fr 07:00-22:00; Sa, Su 09:00-20:00",
        "opening_hours:wellness": "Mo-Fr 10:00-21:00; Sa, Su 09:00-20:00",
        "sport": "gymnastics"
      }
    },
    {
      "type": "node",
      "id": 1507710026,
      "lat": 46.6095480,
      "lon": 14.1781389,
      "tags": {
        "leisure": "sports_centre",
        "name": "Turnhalle VS"
      }
    },
    {
      "type": "node",
      "id": 1537995855,
      "lat": 46.5897054,
      "lon": 14.2726430,
      "tags": {
        "addr:city": "Klagenfurt am Wörthersee",
        "addr:country": "AT",
        "addr:housenumber": "2",
        "addr:postcode": "9020",
        "addr:street": "Schulstraße",
        "leisure": "sports_centre",
        "name": "Viktring",
        "sport": "handball",
        "wheelchair": "yes"
      }
    },
    {
      "type": "node",
      "id": 1539253321,
      "lat": 48.0164781,
      "lon": 13.0238153,
      "tags": {
        "leisure": "sports_centre",
        "name": "Sportanlage Michaelbeuern"
      }
    },
    {
      "type": "node",
      "id": 1539256310,
      "lat": 48.0209795,
      "lon": 13.0293446,
      "tags": {
        "leisure": "sports_centre",
        "name": "Turnsaal PHS"
      }
    },
    {
      "type": "node",
      "id": 1540457368,
      "lat": 47.3627210,
      "lon": 13.2051060,
      "tags": {
        "addr:city": "Sankt Johann im Pongau",
        "addr:country": "AT",
        "addr:housenumber": "44",
        "addr:postcode": "5600",
        "addr:street": "Industriestraße",
        "leisure": "sports_centre",
        "name": "Bodyland",
        "sport": "multi"
      }
    },
    {
      "type": "node",
      "id": 1544136456,
      "lat": 47.9778931,
      "lon": 16.2219031,
      "tags": {
        "leisure": "sports_centre",
        "name": "Club Top & Fit"
      }
    },
    {
      "type": "node",
      "id": 1545232131,
      "lat": 47.9546158,
      "lon": 14.7817961,
      "tags": {
        "addr:city": "Waidhofen an der Ybbs",
        "addr:country": "AT",
        "addr:housenumber": "9",
        "addr:postcode": "3340",
        "addr:street": "In der Rehsulz",
        "leisure": "sports_centre",
        "name": "ASKÖ Waidhofen an der Ybbs",
        "sport": "tennis",
        "website": "http://www.askoewaidhofen.at/askoe/impressum/"
      }
    },
    {
      "type": "node",
      "id": 1562601660,
      "lat": 48.7836805,
      "lon": 15.3873514,
      "tags": {
        "leisure": "sports_centre",
        "name": "Fußballplatz SV Sparkasse Groß-Siegharts"
      }
    },
    {
      "type": "node",
      "id": 1569439778,
      "lat": 47.4886318,
      "lon": 12.0711832,
      "tags": {
        "contact:email": "info@kletterhalle-woergl.at",
        "contact:facebook": "http://www.facebook.com/kletterhallewoergl",
        "contact:phone": "+43 5332 71567",
        "contact:website": "http://www.kletterhalle-woergl.at",
        "leisure": "sports_centre",
        "level": "1",
        "name": "Kletterhalle Wörgl",
        "opening_hours": "10:00-23:00; Th 09:00-23:00",
        "sport": "climbing"
      }
    },
    {
      "type": "node",
      "id": 1577478733,
      "lat": 47.9268260,
      "lon": 15.0901366,
      "tags": {
        "leisure": "sports_centre",
        "name": "Tennishalle",
        "sport": "tennis",
        "wheelchair": "limited"
      }
    },
    {
      "type": "node",
      "id": 1587170365,
      "lat": 47.5030495,
      "lon": 16.5450529,
      "tags": {
        "building": "hut",
        "leisure": "sports_centre",
        "name": "Sportplatz",
        "sport": "soccer"
      }
    },
    {
      "type": "node",
      "id": 1591388419,
      "lat": 48.5575937,
      "lon": 16.0744413,
      "tags": {
        "leisure": "sports_centre",
        "name": "Sporthalle Hollabrunn",
        "sport": "multi"
      }
    },
    {
      "type": "node",
      "id": 1593489668,
      "lat": 47.2415482,
      "lon": 10.7505698,
      "tags": {
        "addr:city": "Imst",
        "addr:housenumber": "25",
        "addr:postcode": "6460",
        "addr:street": "Am Raun",
        "building": "yes",
        "charge": "https://kletterzentrum-oberland.at/klettern/",
        "climbing": "boulder",
        "fee": "yes",
        "leisure": "sports_centre",
        "name": "Kletterzentrum Imst",
        "opening_hours": "Mo-Fr 14:00-22:00 Sa-So 10:00-20:00",
        "payment:cards": "yes",
        "payment:cash": "yes",
        "sport": "climbing",
        "website": "https://www.kletterzentrum-imst.at/"
      }
    },
    {
      "type": "node",
      "id": 1600941680,
      "lat": 48.1947896,
      "lon": 16.3984584,
      "tags": {
        "addr:city": "Wien",
        "addr:country": "AT",
        "addr:housenumber": "13",
        "addr:postcode": "1030",
        "addr:street": "Rabengasse",
        "leisure": "sports_centre",
        "name": "Sportclub Rabenstreet",
        "sport": "strength_sports"
      }
    },
    {
      "type": "node",
      "id": 1602786854,
      "lat": 48.1939076,
      "lon": 16.3886981,
      "tags": {
        "addr:city": "Wien",
        "addr:country": "AT",
        "addr:housenumber": "36",
        "addr:postcode": "1030",
        "addr:street": "Rennweg",
        "fax": "+43 1 7967373",
        "leisure": "sports_centre",
        "name": "Shape Line",
        "phone": "+43 1 7967373",
        "website": "https://www.shapeline.at/",
        "wheelchair": "no"
      }
    },
    {
      "type": "node",
      "id": 1604822518,
      "lat": 48.4440228,
      "lon": 14.6824139,
      "tags": {
        "leisure": "sports_centre",
        "name": "Sport Union St.Leonhard"
      }
    },
    {
      "type": "node",
      "id": 1615503428,
      "lat": 47.4420266,
      "lon": 11.6986627,
      "tags": {
        "amenity": "cafe",
        "check_date:opening_hours": "2025-11-13",
        "leisure": "sports_centre",
        "name": "Rieser Team Lodge",
        "opening_hours:signed": "no",
        "sport": "tennis"
      }
    },
    {
      "type": "node",
      "id": 1635759819,
      "lat": 47.2625299,
      "lon": 11.4663368,
      "tags": {
        "leisure": "sports_centre",
        "name": "Turnsaal",
        "sport": "gymnastics",
        "wheelchair": "no"
      }
    },
    {
      "type": "node",
      "id": 1640361890,
      "lat": 48.0070881,
      "lon": 16.2637327,
      "tags": {
        "addr:city": "Tribuswinkel",
        "addr:country": "AT",
        "addr:housenumber": "39",
        "addr:postcode": "2512",
        "addr:street": "Badener Straße",
        "contact:email": "info@klettercenter.at",
        "contact:phone": "+43 676 7722283",
        "contact:website": "http://www.klettercenter.at/",
        "fee": "yes",
        "leisure": "sports_centre",
        "name": "Klettercenter Rotpunkt",
        "opening_hours": "Mo-Fr 15:00-22:00; Sa-Su,PH 13:00-20:00",
        "sport": "climbing"
      }
    },
    {
      "type": "node",
      "id": 1653393439,
      "lat": 46.8091569,
      "lon": 14.8494679,
      "tags": {
        "leisure": "sports_centre",
        "name": "Club Vital"
      }
    },
    {
      "type": "node",
      "id": 1654146326,
      "lat": 47.5364056,
      "lon": 14.8885139,
      "tags": {
        "leisure": "sports_centre",
        "name": "Indoor Sport",
        "sport": "gymnastics"
      }
    },
    {
      "type": "node",
      "id": 1654162165,
      "lat": 47.5131187,
      "lon": 14.8352587,
      "tags": {
        "addr:city": "Eisenerz",
        "addr:housenumber": "8",
        "addr:postcode": "8790",
        "addr:street": "Ramsau",
        "fee": "yes",
        "leisure": "sports_centre",
        "name": "Erzberg Arena",
        "operator": "NAZ Ausbildungscampus GmbH",
        "operator:type": "public",
        "sport": "ski_jumping"
      }
    },
    {
      "type": "node",
      "id": 1654162170,
      "lat": 47.5129448,
      "lon": 14.8409825,
      "tags": {
        "leisure": "sports_centre",
        "name": "Biathlon Anlage",
        "sport": "shooting"
      }
    },
    {
      "type": "node",
      "id": 1654954234,
      "lat": 47.2846233,
      "lon": 9.6451190,
      "tags": {
        "access": "yes",
        "barrier": "entrance",
        "covered": "no",
        "leisure": "sports_centre",
        "name": "Schwimmbad Frutzauen",
        "sport": "swimming",
        "wheelchair": "yes"
      }
    },
    {
      "type": "node",
      "id": 1656150709,
      "lat": 47.0653763,
      "lon": 15.4649321,
      "tags": {
        "addr:city": "Graz",
        "addr:country": "AT",
        "addr:housenumber": "3",
        "addr:postcode": "8010",
        "addr:street": "Waltendorfer Hauptstraße",
        "email": "office@3dfitnessstudio.at",
        "leisure": "sports_centre",
        "name": "3D Fitness Club",
        "opening_hours": "Mo-Fr 09:00-22:00; Sa-Su 12:00-20:00",
        "phone": "+43316 422 353",
        "website": "http://www.3dfitnessstudio.at",
        "wheelchair": "yes"
      }
    },
    {
      "type": "node",
      "id": 1662845118,
      "lat": 48.0274626,
      "lon": 14.7663232,
      "tags": {
        "leisure": "sports_centre",
        "name": "Sporthalle Kematen"
      }
    },
    {
      "type": "node",
      "id": 1665339980,
      "lat": 48.1914314,
      "lon": 16.2806123,
      "tags": {
        "addr:city": "Wien",
        "addr:country": "AT",
        "addr:housenumber": "133",
        "addr:postcode": "1130",
        "addr:street": "Hietzinger Kai",
        "leisure": "sports_centre",
        "name": "Fitfabrik",
        "website": "https://www.fitfabrik.at/"
      }
    },
    {
      "type": "node",
      "id": 1667586577,
      "lat": 47.2773215,
      "lon": 10.7615765,
      "tags": {
        "leisure": "sports_centre",
        "name": "Sportplatz Lenzenanger",
        "sport": "soccer"
      }
    },
    {
      "type": "node",
      "id": 1676767994,
      "lat": 48.1981940,
      "lon": 16.3885021,
      "tags": {
        "addr:city": "Wien",
        "addr:country": "AT",
        "addr:housenumber": "8",
        "addr:postcode": "1030",
        "addr:street": "Dapontegasse",
        "leisure": "sports_centre",
        "name": "EnShiro Dojo Wien",
        "sport": "martial_arts",
        "website": "https://www.enshiro.com/"
      }
    },
    {
      "type": "node",
      "id": 1679617676,
      "lat": 47.1740066,
      "lon": 14.6796328,
      "tags": {
        "addr:city": "Judenburg",
        "addr:country": "AT",
        "addr:housenumber": "1",
        "addr:postcode": "8750",
        "addr:street": "Ferdinand-von-Saar Gasse",
        "leisure": "sports_centre",
        "name": "Fair Fitness",
        "phone": "+43 660 1613180",
        "sport": "gymnastics",
        "website": "https://www.lifestylefitness.at/judenburg"
      }
    },
    {
      "type": "node",
      "id": 1681809929,
      "lat": 48.1980316,
      "lon": 16.3003707,
      "tags": {
        "addr:city": "Wien",
        "addr:country": "AT",
        "addr:housenumber": "130A",
        "addr:postcode": "1140",
        "addr:street": "Hütteldorfer Straße",
        "check_date": "2024-04-11",
        "leisure": "sports_centre",
        "name": "Holmes Place",
        "opening_hours": "Mo-Th 06:30-23:00; Fr 06:30-22:00; Sa 08:00-21:00; Su 09:00-22:00; PH 09:00-22:00",
        "phone": "+43 1 41588-0",
        "sport": "gymnastics",
        "website": "http://www.holmesplace.at"
      }
    },
    {
      "type": "node",
      "id": 1687429049,
      "lat": 47.4482306,
      "lon": 11.8671011,
      "tags": {
        "contact:facebook": "markus.pumpfer",
        "email": "info@outdoorcenter-tirol.com",
        "leisure": "sports_centre",
        "name": "Outdoor Center Kramsach",
        "phone": "+43 664 927 39 31",
        "website": "https://www.outdoorcenter-tirol.com/"
      }
    },
    {
      "type": "node",
      "id": 1687431884,
      "lat": 47.4513250,
      "lon": 11.8651431,
      "tags": {
        "leisure": "sports_centre",
        "name": "Sport-Ossi",
        "sport": "swimming"
      }
    },
    {
      "type": "node",
      "id": 1687442077,
      "lat": 47.4477409,
      "lon": 11.8745631,
      "tags": {
        "leisure": "sports_centre",
        "name": "Tennishalle Kramsach",
        "sport": "tennis"
      }
    },
    {
      "type": "node",
      "id": 1690816483,
      "lat": 47.6481520,
      "lon": 12.3122376,
      "tags": {
        "addr:housename": "Tenniscenter",
        "leisure": "sports_centre",
        "name": "Tenniscenter Walchsee",
        "sport": "tennis"
      }
    },
    {
      "type": "node",
      "id": 1696029574,
      "lat": 47.9649604,
      "lon": 16.4020701,
      "tags": {
        "leisure": "sports_centre",
        "name": "Mrs. Sporty",
        "website": "https://www.mrssporty.at/club431"
      }
    },
    {
      "type": "node",
      "id": 1696136423,
      "lat": 47.9630475,
      "lon": 16.4110240,
      "tags": {
        "addr:city": "Ebreichsdorf",
        "addr:housenumber": "36",
        "addr:postcode": "2483",
        "addr:street": "Bahnstraße",
        "amenity": "restaurant",
        "leisure": "sports_centre",
        "name": "Tenniscenter Fam. Skarics",
        "opening_hours": "11:00-14:00, 17:00-22:30",
        "outdoor_seating": "yes",
        "tourism": "hotel"
      }
    },
    {
      "type": "node",
      "id": 1700163128,
      "lat": 47.3185617,
      "lon": 13.1470938,
      "tags": {
        "addr:city": "Schwarzach im Pongau",
        "addr:country": "AT",
        "addr:housenumber": "24",
        "addr:postcode": "5620",
        "addr:street": "Kraftwerkstraße",
        "contact:email": "jasmin@fit-plus.at",
        "contact:phone": "+43 664 1239058",
        "contact:website": "www.fit-plus.at",
        "leisure": "sports_centre",
        "name": "Fit-Plus Massage & Fitness Studio",
        "opening_hours": "Mo 09:00-12:00, 15:00-22:00; Tu 14:30-22:00; We 09:00-12:00, 15:00-22:00; Th 14:30-22:00; Fr 09:00-12:00, 15:00-22:00; Sa 17:00-21:00",
        "operator": "Jasminka Velic",
        "sport": "multi"
      }
    },
    {
      "type": "node",
      "id": 1701309592,
      "lat": 48.2207806,
      "lon": 16.3313257,
      "tags": {
        "addr:city": "Wien",
        "addr:country": "AT",
        "addr:housenumber": "19",
        "addr:postcode": "1170",
        "addr:street": "Hormayrgasse",
        "contact:email": "club452@club.mrssporty.at",
        "contact:phone": "+43 699 17209922",
        "contact:website": "http://www.mrssporty.at",
        "leisure": "sports_centre",
        "name": "Mrs. Sporty",
        "opening_hours": "Mo 08:00-12:00,16:00-19:00; Tu 09:00-12:00,16:00-19:00; We 08:00-12:00,16:00-19:00; Th 09:00-12:00,16:00-19:00; Fr 09:00-12:00"
      }
    },
    {
      "type": "node",
      "id": 1704192164,
      "lat": 48.3139329,
      "lon": 14.2989672,
      "tags": {
        "addr:city": "Linz",
        "addr:housenumber": "21-25",
        "addr:postcode": "4020",
        "addr:street": "Untere Donaulände",
        "fee": "yes",
        "leisure": "sports_centre",
        "name": "John Harris Donaupark",
        "opening_hours": "Mo-Th 06:30-22:30; Fr 06:30-22:00; Sa 08:00-20:30; Su 08:00-21:30",
        "phone": "+43 732 771 770",
        "sport": "gymnastics;fitness",
        "toilets:wheelchair": "yes",
        "website": "https://www.johnharris.at/de/studios/detail/9/donaupark-linz.html",
        "wheelchair": "limited"
      }
    },
    {
      "type": "node",
      "id": 1712265537,
      "lat": 47.7404600,
      "lon": 16.5013584,
      "tags": {
        "addr:housename": "Franz Kovacsich-Platz",
        "addr:postcode": "7021",
        "addr:street": "Franz Kovacsich-Platz",
        "leisure": "sports_centre",
        "name": "Sportplatz Baumgarten",
        "source": "www.askbaumgarten.at",
        "sport": "soccer"
      }
    },
    {
      "type": "node",
      "id": 1712341808,
      "lat": 48.0190779,
      "lon": 13.0261496,
      "tags": {
        "leisure": "sports_centre",
        "name": "Turnsaal VS"
      }
    },
    {
      "type": "node",
      "id": 1712342954,
      "lat": 47.7382148,
      "lon": 16.5127934,
      "tags": {
        "leisure": "sports_centre",
        "name": "Fischereiverein"
      }
    },
    {
      "type": "node",
      "id": 1712669888,
      "lat": 48.2074043,
      "lon": 16.4225188,
      "tags": {
        "addr:city": "Wien",
        "addr:country": "AT",
        "addr:housename": "Ernst Happel Stadion (Sektor D)",
        "addr:housenumber": "7",
        "addr:postcode": "1020",
        "addr:street": "Meiereistraße",
        "alt_name": "UAB Wien",
        "check_date": "2024-10-08",
        "club": "sport",
        "leisure": "sports_centre",
        "name": "Union Aktiv Brigittenau Wien",
        "sport": "multi",
        "website": "http://www.uab.at/"
      }
    },
    {
      "type": "node",
      "id": 1714105922,
      "lat": 46.8304671,
      "lon": 12.8129111,
      "tags": {
        "leisure": "sports_centre",
        "name": "Tennishalle Debant",
        "sport": "tennis"
      }
    },
    {
      "type": "node",
      "id": 1714544356,
      "lat": 47.7393584,
      "lon": 16.4064279,
      "tags": {
        "leisure": "sports_centre",
        "name": "SV Mattersburg",
        "sport": "soccer"
      }
    },
    {
      "type": "node",
      "id": 1723344702,
      "lat": 48.2066629,
      "lon": 16.4167446,
      "tags": {
        "addr:city": "Wien",
        "addr:country": "AT",
        "addr:housenumber": "18",
        "addr:postcode": "1020",
        "addr:street": "Meiereistraße",
        "contact:email": "office@vienna-cricket.at",
        "contact:facebook": "https://www.facebook.com/Vienna-Cricket-and-Football-Club-112565492105485/",
        "contact:phone": "+43 1 729 69 10",
        "contact:website": "http://www.vienna-cricket.at/",
        "leisure": "sports_centre",
        "name": "Vienna Cricket and Football-Club",
        "sport": "tennis",
        "wheelchair": "yes",
        "wikidata": "Q430940",
        "wikipedia": "de:Vienna Cricket and Football-Club"
      }
    },
    {
      "type": "node",
      "id": 1723347943,
      "lat": 48.2118630,
      "lon": 16.4036880,
      "tags": {
        "leisure": "sports_centre",
        "name": "HTC Hockeystadion",
        "sport": "soccer"
      }
    },
    {
      "type": "node",
      "id": 1723348144,
      "lat": 48.2119881,
      "lon": 16.4050934,
      "tags": {
        "check_date": "2023-08-11",
        "leisure": "sports_centre",
        "name": "Sports Monkeys",
        "sport": "tennis"
      }
    },
    {
      "type": "node",
      "id": 1723353210,
      "lat": 48.1909608,
      "lon": 16.4404718,
      "tags": {
        "addr:housenumber": "65A",
        "addr:street": "Rennbahnstraße",
        "check_date": "2023-10-29",
        "leisure": "sports_centre",
        "name": "Golf Club Wien Freudenau",
        "sport": "golf"
      }
    },
    {
      "type": "node",
      "id": 1723964664,
      "lat": 48.3017541,
      "lon": 14.2916544,
      "tags": {
        "leisure": "sports_centre",
        "name": "John Harris",
        "sport": "gymnastics"
      }
    },
    {
      "type": "node",
      "id": 1723983770,
      "lat": 48.2667718,
      "lon": 14.2865695,
      "tags": {
        "addr:city": "Linz",
        "addr:country": "AT",
        "addr:housenumber": "117",
        "addr:postcode": "4020",
        "addr:street": "Landwiedstraße",
        "leisure": "sports_centre",
        "name": "California Fitnesscenter Max Schweighart",
        "phone": "+43 732 341157",
        "sport": "gymnastics",
        "website": "https://www.fitness-california.at"
      }
    },
    {
      "type": "node",
      "id": 1725614090,
      "lat": 48.2152711,
      "lon": 16.3908840,
      "tags": {
        "addr:city": "Wien",
        "addr:country": "AT",
        "addr:housenumber": "18",
        "addr:postcode": "1020",
        "addr:street": "Franzensbrückenstraße",
        "leisure": "sports_centre",
        "name": "YOUNG-UNG Taekwondo",
        "wheelchair": "no"
      }
    },
    {
      "type": "node",
      "id": 1726890138,
      "lat": 47.4148186,
      "lon": 9.7326291,
      "tags": {
        "addr:city": "Dornbirn",
        "addr:country": "AT",
        "addr:housenumber": "10",
        "addr:postcode": "6850",
        "addr:street": "Bildgasse",
        "check_date": "2023-01-03",
        "climbing:boulder": "yes",
        "climbing:sport": "yes",
        "contact:email": "info@k1-dornbirn.at",
        "contact:fax": "+43 5572 3948109",
        "contact:phone": "+43 5572 394810",
        "contact:website": "http://www.k1-dornbirn.at",
        "int_name": "Climbing Hall K1",
        "internet_access": "wlan",
        "internet_access:fee": "no",
        "leisure": "sports_centre",
        "name": "K1",
        "opening_hours": "Mo 10:00-22:00; Tu 12:00-22:00; We 10:00-22:00; Th-Fr 12:00-22:00; Sa-Su,PH 10:00-18:00",
        "source": "survey",
        "sport": "climbing",
        "toilets:wheelchair": "yes",
        "wheelchair": "yes"
      }
    },
    {
      "type": "node",
      "id": 1729033212,
      "lat": 48.5274459,
      "lon": 13.6397346,
      "tags": {
        "leisure": "sports_centre",
        "name": "Sportanlagen - Sportunion Vichtenstein"
      }
    },
    {
      "type": "node",
      "id": 1730308064,
      "lat": 47.9805228,
      "lon": 14.1581624,
      "tags": {
        "leisure": "sports_centre",
        "name": "Nuts Creek Archery",
        "sport": "archery",
        "website": "http://www.nutscreek.com"
      }
    },
    {
      "type": "node",
      "id": 1730509422,
      "lat": 48.1963626,
      "lon": 16.3648370,
      "tags": {
        "addr:city": "Wien",
        "addr:country": "AT",
        "addr:housenumber": "26",
        "addr:postcode": "1040",
        "addr:street": "Margaretenstraße",
        "leisure": "sports_centre",
        "name": "Tumbao Dance Studio",
        "website": "https://www.tumbao.at/"
      }
    },
    {
      "type": "node",
      "id": 1733023189,
      "lat": 47.9849389,
      "lon": 12.9203837,
      "tags": {
        "leisure": "sports_centre",
        "name": "Turnhalle"
      }
    },
    {
      "type": "node",
      "id": 1735850636,
      "lat": 48.2029716,
      "lon": 16.3401316,
      "tags": {
        "addr:city": "Wien",
        "addr:country": "AT",
        "addr:housenumber": "61",
        "addr:postcode": "1070",
        "addr:street": "Kaiserstraße",
        "leisure": "sports_centre",
        "name": "YOUNG-UNG Taekwondo",
        "wheelchair": "no"
      }
    },
    {
      "type": "node",
      "id": 1736717521,
      "lat": 48.0941892,
      "lon": 16.4194719,
      "tags": {
        "leisure": "sports_centre",
        "name": "Sportplatz Maria Lanzendorf"
      }
    },
    {
      "type": "node",
      "id": 1743396568,
      "lat": 48.1267570,
      "lon": 14.4813600,
      "tags": {
        "addr:postcode": "4432",
        "leisure": "sports_centre",
        "name": "TC Ernsthofen",
        "sport": "tennis"
      }
    },
    {
      "type": "node",
      "id": 1746707529,
      "lat": 47.9819908,
      "lon": 12.9221485,
      "tags": {
        "leisure": "sports_centre",
        "name": "Fitnesstreff Bürmoos"
      }
    },
    {
      "type": "node",
      "id": 1746707544,
      "lat": 47.9888024,
      "lon": 12.9339418,
      "tags": {
        "leisure": "sports_centre",
        "name": "Body & Health Club Fitnessstudio"
      }
    },
    {
      "type": "node",
      "id": 1752595009,
      "lat": 48.2279697,
      "lon": 16.3950784,
      "tags": {
        "addr:city": "Wien",
        "addr:country": "AT",
        "addr:housenumber": "163",
        "addr:postcode": "1020",
        "addr:street": "Leystraße",
        "leisure": "sports_centre",
        "name": "Ballschule Wien",
        "website": "https://www.ballschule-wien.at/",
        "wheelchair": "yes"
      }
    },
    {
      "type": "node",
      "id": 1769270744,
      "lat": 48.1823587,
      "lon": 16.3751899,
      "tags": {
        "check_date": "2023-11-05",
        "leisure": "sports_centre",
        "name": "Gold’s Gym",
        "wheelchair": "limited"
      }
    },
    {
      "type": "node",
      "id": 1770312643,
      "lat": 46.8345709,
      "lon": 14.5397277,
      "tags": {
        "leisure": "sports_centre",
        "name": "Sportplatz der MS Klein St. Paul"
      }
    },
    {
      "type": "node",
      "id": 1770312935,
      "lat": 46.8319102,
      "lon": 14.5470797,
      "tags": {
        "leisure": "sports_centre",
        "name": "Eishockerplatz"
      }
    },
    {
      "type": "node",
      "id": 1780622497,
      "lat": 47.9743678,
      "lon": 13.8154574,
      "tags": {
        "contact:email": "fitness@no-limit.co.at",
        "contact:website": "http://www.no-limit.co.at/",
        "leisure": "sports_centre",
        "name": "no-limit Fitnesscenter"
      }
    },
    {
      "type": "node",
      "id": 1781924195,
      "lat": 48.2987884,
      "lon": 16.3892361,
      "tags": {
        "addr:city": "Wien",
        "addr:country": "AT",
        "addr:housenumber": "20",
        "addr:postcode": "1210",
        "addr:street": "Anton-Böck-Gasse",
        "designation": "Tauchschule, Tauchshop, Tauchbasis",
        "leisure": "sports_centre",
        "name": "Tauchzentrum Wien",
        "source": "www.tauchzentrum.at"
      }
    },
    {
      "type": "node",
      "id": 1782900476,
      "lat": 48.3590369,
      "lon": 14.0025933,
      "tags": {
        "addr:housenumber": "5",
        "addr:postcode": "4081",
        "addr:street": "Karlingerstraße",
        "leisure": "sports_centre",
        "name": "Fitnesspark Body&Soul"
      }
    },
    {
      "type": "node",
      "id": 1783971371,
      "lat": 47.9703743,
      "lon": 16.8103976,
      "tags": {
        "fixme": "Name, Lage",
        "leisure": "sports_centre",
        "name": "Tontauben",
        "shooting": "clay_pigeon",
        "sport": "shooting"
      }
    },
    {
      "type": "node",
      "id": 1785276847,
      "lat": 48.1937320,
      "lon": 16.3511162,
      "tags": {
        "leisure": "sports_centre",
        "name": "Union Fechtclub",
        "short_name": "UFC",
        "sport": "fencing",
        "website": "https://www.sportfechten.at/",
        "wikipedia": "de:Union Fechtclub Wien"
      }
    },
    {
      "type": "node",
      "id": 1791384506,
      "lat": 47.4869925,
      "lon": 10.8430129,
      "tags": {
        "diving": "yes",
        "leisure": "sports_centre",
        "name": "Taucherdorf Planseecamp",
        "tourism": "chalet"
      }
    },
    {
      "type": "node",
      "id": 1795874447,
      "lat": 48.3290636,
      "lon": 16.0544073,
      "tags": {
        "addr:city": "Tulln an der Donau",
        "addr:housenumber": "16-18",
        "addr:postcode": "3430",
        "addr:street": "Bahnhofstraße",
        "leisure": "sports_centre",
        "name": "Friends Health Club"
      }
    },
    {
      "type": "node",
      "id": 1805155581,
      "lat": 47.5870918,
      "lon": 12.6929721,
      "tags": {
        "addr:country": "AT",
        "addr:housenumber": "15",
        "addr:place": "Lofer",
        "addr:postcode": "5090",
        "check_date": "2026-02-28",
        "leisure": "sports_centre",
        "name": "INTERSPORT Sturm",
        "phone": "+43 6588 72911",
        "shop": "sports",
        "source": "INTERSPORT Österreich",
        "url": "http://www.sturm-ski.com",
        "website": "https://www.sport-lofer.com/",
        "wheelchair": "limited"
      }
    },
    {
      "type": "node",
      "id": 1805156663,
      "lat": 47.5882105,
      "lon": 12.6918095,
      "tags": {
        "addr:country": "AT",
        "addr:housenumber": "176",
        "addr:postcode": "5090",
        "addr:street": "Nr.",
        "leisure": "sports_centre",
        "name": "SKISCHULE + INTERSPORT Sturm - Bobo Kinderclub",
        "shop": "sports",
        "source": "INTERSPORT Österreich",
        "sport": "skiing;snowshoes",
        "website": "http://www.sturm-ski.com"
      }
    },
    {
      "type": "node",
      "id": 1806913893,
      "lat": 48.1783210,
      "lon": 16.0781359,
      "tags": {
        "leisure": "sports_centre",
        "name": "Sporthalle"
      }
    },
    {
      "type": "node",
      "id": 1813682364,
      "lat": 47.0134993,
      "lon": 14.7352653,
      "tags": {
        "leisure": "sports_centre",
        "name": "Sportplatz Reichenfels"
      }
    },
    {
      "type": "node",
      "id": 1820463043,
      "lat": 47.0835710,
      "lon": 16.1096619,
      "tags": {
        "leisure": "sports_centre",
        "name": "SV Deutsch Kaltenbrunn",
        "sport": "soccer",
        "website": "http://www.svdk.at/"
      }
    },
    {
      "type": "node",
      "id": 1822763347,
      "lat": 46.5257079,
      "lon": 14.2116362,
      "tags": {
        "addr:housename": "Bouldergarage",
        "leisure": "sports_centre",
        "name": "Boulderhalle"
      }
    },
    {
      "type": "node",
      "id": 1827052996,
      "lat": 47.0649542,
      "lon": 15.4007789,
      "tags": {
        "female": "only",
        "leisure": "sports_centre",
        "name": "LifeStyle Ladies",
        "website": "https://www.lifestyleladies.com/"
      }
    },
    {
      "type": "node",
      "id": 1831389486,
      "lat": 47.1575767,
      "lon": 9.8132012,
      "tags": {
        "addr:city": "Bludenz",
        "addr:country": "AT",
        "addr:housenumber": "53",
        "addr:postcode": "6700",
        "addr:street": "Werdenbergerstraße",
        "contact:website": "http://www.strike-center.at",
        "leisure": "sports_centre",
        "name": "Strike Center Bludenz",
        "opening_hours": "Mo-We 16:00-24:00; Th 16:00-02:00; Fr 14:00-04:00; Sa 13:30-04:00; Su 13:30-00:00",
        "sport": "10pin",
        "toilets:wheelchair": "yes",
        "wheelchair": "yes"
      }
    },
    {
      "type": "node",
      "id": 1836358578,
      "lat": 46.9924022,
      "lon": 15.5025289,
      "tags": {
        "leisure": "sports_centre",
        "name": "Sportplatz Hausmannstätten",
        "sport": "soccer"
      }
    },
    {
      "type": "node",
      "id": 1864018286,
      "lat": 48.0075763,
      "lon": 13.6528546,
      "tags": {
        "addr:city": "Vöcklabruck",
        "addr:country": "AT",
        "addr:housenumber": "4",
        "addr:postcode": "4840",
        "addr:street": "Salzburger Straße",
        "leisure": "sports_centre",
        "name": "Power Plate",
        "phone": "+43 7672 22104",
        "shop": "hairdresser",
        "wheelchair": "yes"
      }
    },
    {
      "type": "node",
      "id": 1869861758,
      "lat": 48.0106387,
      "lon": 13.6588352,
      "tags": {
        "addr:city": "Vöcklabruck",
        "addr:country": "AT",
        "addr:housenumber": "4",
        "addr:postcode": "4840",
        "addr:street": "Bahnhofsstraße",
        "leisure": "sports_centre",
        "name": "Figur Studio S.J.",
        "phone": "+43 664 8588077",
        "website": "http://www.welldorado.co.at",
        "wheelchair": "no"
      }
    },
    {
      "type": "node",
      "id": 1872491696,
      "lat": 48.3446748,
      "lon": 15.9115372,
      "tags": {
        "leisure": "sports_centre",
        "name": "Hallenbad Zwentendorf",
        "sauna": "yes",
        "sport": "swimming"
      }
    },
    {
      "type": "node",
      "id": 1877472210,
      "lat": 48.0072405,
      "lon": 13.6565603,
      "tags": {
        "addr:city": "Vöcklabruck",
        "addr:country": "AT",
        "addr:housenumber": "1a",
        "addr:postcode": "4840",
        "addr:street": "Dr. Alois Scherer-Straße",
        "leisure": "sports_centre",
        "name": "Massage-Fachinstitut Steinhuber",
        "phone": "+43 7672 25265",
        "wheelchair": "no"
      }
    },
    {
      "type": "node",
      "id": 1878389790,
      "lat": 47.3049424,
      "lon": 16.4438792,
      "tags": {
        "addr:housenumber": "4",
        "addr:postcode": "7471",
        "addr:street": "Günserstraße",
        "leisure": "sports_centre",
        "name": "Hantelclub Rechnitz",
        "sport": "gymnastics"
      }
    },
    {
      "type": "node",
      "id": 1880692099,
      "lat": 48.2169932,
      "lon": 16.5315017,
      "tags": {
        "addr:city": "Wien",
        "addr:country": "AT",
        "addr:housenumber": "49",
        "addr:postcode": "1220",
        "addr:street": "Schafflerhofstraße",
        "leisure": "sports_centre",
        "name": "TC Essling",
        "sport": "tennis"
      }
    },
    {
      "type": "node",
      "id": 1886316332,
      "lat": 48.0034572,
      "lon": 13.6723029,
      "tags": {
        "addr:city": "Vöcklabruck",
        "addr:country": "AT",
        "addr:housenumber": "6",
        "addr:postcode": "4840",
        "addr:street": "Telefunkenstraße",
        "leisure": "sports_centre",
        "name": "HappyFit",
        "phone": "+43 7672 78993",
        "wheelchair": "yes"
      }
    },
    {
      "type": "node",
      "id": 1889796355,
      "lat": 48.0060369,
      "lon": 13.6754674,
      "tags": {
        "addr:city": "Vöcklabruck",
        "addr:country": "AT",
        "addr:housenumber": "61",
        "addr:postcode": "4840",
        "addr:street": "Linzer Straße",
        "leisure": "sports_centre",
        "name": "Lifestyle Ladies",
        "wheelchair": "yes"
      }
    },
    {
      "type": "node",
      "id": 1889905776,
      "lat": 48.0022230,
      "lon": 13.6479961,
      "tags": {
        "addr:city": "Vöcklabruck",
        "addr:country": "AT",
        "addr:housenumber": "2a",
        "addr:postcode": "4840",
        "addr:street": "Robert Kunz-Straße",
        "leisure": "sports_centre",
        "name": "Delta Sportpark",
        "phone": "+43 7672 77600",
        "website": "https://www.deltasportpark.at/",
        "wheelchair": "no"
      }
    },
    {
      "type": "node",
      "id": 1906577159,
      "lat": 47.8821725,
      "lon": 13.0113617,
      "tags": {
        "addr:housename": "Sportverein Anthering",
        "addr:housenumber": "8",
        "addr:postcode": "5102",
        "addr:street": "Schmiedingerstraße",
        "leisure": "sports_centre",
        "name": "Sportverein Anthering",
        "sport": "soccer"
      }
    },
    {
      "type": "node",
      "id": 1923569998,
      "lat": 47.0983285,
      "lon": 15.1146311,
      "tags": {
        "leisure": "sports_centre",
        "name": "ESV Piberegg",
        "sport": "ice_stock"
      }
    },
    {
      "type": "node",
      "id": 1930718143,
      "lat": 46.8020139,
      "lon": 14.4802286,
      "tags": {
        "leisure": "sports_centre",
        "name": "Krappfelder Hochseilgarten",
        "sport": "climbing_adventure"
      }
    },
    {
      "type": "node",
      "id": 1939416291,
      "lat": 48.1621442,
      "lon": 16.3194046,
      "tags": {
        "leisure": "sports_centre",
        "name": "Fit Inn"
      }
    },
    {
      "type": "node",
      "id": 1949586786,
      "lat": 48.2054852,
      "lon": 16.3885741,
      "tags": {
        "addr:city": "Wien",
        "addr:country": "AT",
        "addr:housenumber": "30",
        "addr:postcode": "1030",
        "addr:street": "Seidlgasse",
        "leisure": "sports_centre",
        "name": "YOGAlounge",
        "source": "YOGAlounge",
        "sport": "gymnastics",
        "url": "http://www.yoga-lounge.at"
      }
    },
    {
      "type": "node",
      "id": 1952236266,
      "lat": 47.9317838,
      "lon": 15.4970568,
      "tags": {
        "leisure": "sports_centre",
        "name": "SV Türnitz"
      }
    },
    {
      "type": "node",
      "id": 1969411981,
      "lat": 47.3695349,
      "lon": 11.7146610,
      "tags": {
        "leisure": "sports_centre",
        "name": "Paradise-World Angerer Michael"
      }
    },
    {
      "type": "node",
      "id": 1971497120,
      "lat": 47.7755270,
      "lon": 13.0133461,
      "tags": {
        "addr:housename": "Alpha Dogs",
        "addr:postcode": "5020",
        "addr:street": "Schwarzgrabenweg",
        "designation": "Dog Sport Center",
        "leisure": "sports_centre",
        "name": "Alpha Dogs"
      }
    },
    {
      "type": "node",
      "id": 1972128409,
      "lat": 48.2232343,
      "lon": 16.3669162,
      "tags": {
        "leisure": "sports_centre",
        "name": "Kyokushin Karate Samurai",
        "phone": "+43 676 444 8 999",
        "wheelchair": "no"
      }
    },
    {
      "type": "node",
      "id": 1972146224,
      "lat": 48.2215471,
      "lon": 16.3654468,
      "tags": {
        "leisure": "sports_centre",
        "name": "YogaPraxis",
        "wheelchair": "no"
      }
    },
    {
      "type": "node",
      "id": 1972229601,
      "lat": 48.2221511,
      "lon": 16.3654040,
      "tags": {
        "leisure": "sports_centre",
        "name": "chladek.tanzraum"
      }
    },
    {
      "type": "node",
      "id": 1979395057,
      "lat": 46.8729316,
      "lon": 15.8993013,
      "tags": {
        "leisure": "sports_centre",
        "name": "Sportplatz",
        "sport": "soccer"
      }
    },
    {
      "type": "node",
      "id": 1979395402,
      "lat": 46.8737523,
      "lon": 15.8996779,
      "tags": {
        "leisure": "sports_centre",
        "name": "Gleichenberghalle"
      }
    },
    {
      "type": "node",
      "id": 1982602492,
      "lat": 48.0096104,
      "lon": 16.2419015,
      "tags": {
        "leisure": "sports_centre",
        "name": "First Pilates",
        "operator": "Sandra Genzel",
        "sport": "pilates"
      }
    },
    {
      "type": "node",
      "id": 1997458332,
      "lat": 47.2639560,
      "lon": 11.3603783,
      "tags": {
        "club": "sport",
        "leisure": "sports_centre",
        "name": "Verein Fifty One Fight Club",
        "opening_hours": "Mo-Th 11:00-00:30, Fr 11:00-24:00, Sa 17:00-24:00, Su 16:00-24:00",
        "wheelchair": "limited"
      }
    },
    {
      "type": "node",
      "id": 2021307914,
      "lat": 46.5519236,
      "lon": 13.8722696,
      "tags": {
        "climbing:bolted": "yes",
        "climbing:boulder": "yes",
        "climbing:multipitch": "yes",
        "climbing:rock": "limestone",
        "climbing:sport": "yes",
        "fee": "no",
        "leisure": "sports_centre",
        "name": "Klettergarten Kanzianiberg",
        "phone": "+43 4254 2110",
        "sport": "climbing",
        "website": "http://www.kanzianiberg.com/",
        "wheelchair": "no",
        "wikidata": "Q17123967",
        "wikipedia": "de:Kanzianiberg Klettersteig"
      }
    },
    {
      "type": "node",
      "id": 2034853153,
      "lat": 46.6595068,
      "lon": 13.0007454,
      "tags": {
        "leisure": "sports_centre",
        "name": "ÖAV- Zentrum"
      }
    },
    {
      "type": "node",
      "id": 2036034163,
      "lat": 47.6844966,
      "lon": 13.1049220,
      "tags": {
        "leisure": "sports_centre",
        "name": "FitCenter"
      }
    },
    {
      "type": "node",
      "id": 2037994504,
      "lat": 48.5743811,
      "lon": 14.0467858,
      "tags": {
        "leisure": "sports_centre",
        "name": "Turnsaal",
        "sport": "multi"
      }
    },
    {
      "type": "node",
      "id": 2044134328,
      "lat": 48.4590354,
      "lon": 15.5299129,
      "tags": {
        "addr:city": "Senftenbergeramt",
        "addr:country": "AT",
        "addr:housenumber": "3",
        "addr:place": "Sportstättenweg",
        "addr:postcode": "3541",
        "leisure": "sports_centre",
        "name": "Schützengesellschaft Senftenberg",
        "sport": "shooting",
        "website": "http://www.schützen-gesellschaft-senftenberg.at"
      }
    },
    {
      "type": "node",
      "id": 2072464134,
      "lat": 48.2730606,
      "lon": 14.3984706,
      "tags": {
        "leisure": "sports_centre",
        "name": "Fetzys World Wasserskizentrum",
        "sport": "wakeboarding",
        "website": "https://www.fetzysworld.com/"
      }
    },
    {
      "type": "node",
      "id": 2097840833,
      "lat": 46.8999337,
      "lon": 13.2635283,
      "tags": {
        "leisure": "sports_centre",
        "name": "Reiterhof"
      }
    },
    {
      "type": "node",
      "id": 2111349189,
      "lat": 47.8221290,
      "lon": 13.2039213,
      "tags": {
        "leisure": "sports_centre",
        "name": "USK Hof"
      }
    },
    {
      "type": "node",
      "id": 2127877024,
      "lat": 48.2380617,
      "lon": 14.6436651,
      "tags": {
        "leisure": "sports_centre",
        "name": "Naturfreunde Perg"
      }
    },
    {
      "type": "node",
      "id": 2127877028,
      "lat": 48.2483632,
      "lon": 14.6447863,
      "tags": {
        "leisure": "sports_centre",
        "name": "Askö Perg"
      }
    },
    {
      "type": "node",
      "id": 2127877031,
      "lat": 48.2376955,
      "lon": 14.6409453,
      "tags": {
        "contact:website": "http://www.union-perg.at/de",
        "email": "unionperg@gmail.com",
        "leisure": "sports_centre",
        "name": "Union Perg"
      }
    },
    {
      "type": "node",
      "id": 2134898685,
      "lat": 48.2455557,
      "lon": 14.6356666,
      "tags": {
        "addr:city": "Perg",
        "addr:housenumber": "13",
        "addr:postcode": "4320",
        "addr:street": "Dirnbergerstraße",
        "fee": "yes",
        "leisure": "sports_centre",
        "name": "Tennis- und Squashhalle",
        "sport": "tennis;squash",
        "website": "https://app.tennis04.com/de/perg/"
      }
    },
    {
      "type": "node",
      "id": 2134898686,
      "lat": 48.2460928,
      "lon": 14.6353983,
      "tags": {
        "addr:city": "Perg",
        "addr:housenumber": "2",
        "addr:postcode": "4320",
        "addr:street": "Jahnstraße",
        "leisure": "sports_centre",
        "name": "Turnhalle Perg",
        "sport": "athletics",
        "sport:de": "turnen"
      }
    },
    {
      "type": "node",
      "id": 2152323373,
      "lat": 48.4062384,
      "lon": 15.6530237,
      "tags": {
        "addr:city": "Krems an der Donau",
        "addr:country": "AT",
        "addr:housenumber": "39",
        "addr:postcode": "3500",
        "addr:street": "An der Schütt",
        "amenity": "pub",
        "leisure": "sports_centre",
        "name": "X-Bowl",
        "phone": "+43 2732 713 14",
        "sport": "10pin",
        "website": "https://www.x-bowl.at"
      }
    },
    {
      "type": "node",
      "id": 2162933616,
      "lat": 47.0781762,
      "lon": 15.4442019,
      "tags": {
        "addr:city": "Graz",
        "addr:country": "AT",
        "addr:housenumber": "2",
        "addr:postcode": "8010",
        "addr:street": "Geidorfplatz",
        "contact:email": "info@taekwondo-graz.at",
        "contact:website": "http://www.taekwondo-graz.at/",
        "leisure": "sports_centre",
        "name": "Taekwondo Graz",
        "sport": "taekwondo"
      }
    },
    {
      "type": "node",
      "id": 2166969446,
      "lat": 48.2532669,
      "lon": 16.3672371,
      "tags": {
        "addr:city": "Wien",
        "addr:housenumber": "112",
        "addr:postcode": "1190",
        "addr:street": "Grinzinger Straße",
        "leisure": "sports_centre",
        "level": "3",
        "name": "Top Gym",
        "opening_hours": "24/7",
        "sport": "gymnastics"
      }
    },
    {
      "type": "node",
      "id": 2168772019,
      "lat": 48.5146171,
      "lon": 13.4584089,
      "tags": {
        "leisure": "sports_centre",
        "name": "Union Sport- und Freizeitanlage",
        "toilets:wheelchair": "yes",
        "wheelchair": "yes"
      }
    },
    {
      "type": "node",
      "id": 2169180300,
      "lat": 48.3058596,
      "lon": 13.6331610,
      "tags": {
        "leisure": "sports_centre",
        "name": "Energy Fitness",
        "sport": "multi"
      }
    },
    {
      "type": "node",
      "id": 2202485420,
      "lat": 46.7552209,
      "lon": 13.2570624,
      "tags": {
        "leisure": "sports_centre",
        "name": "Eisplatz",
        "wheelchair": "limited"
      }
    },
    {
      "type": "node",
      "id": 2203233808,
      "lat": 47.0338998,
      "lon": 15.3015665,
      "tags": {
        "leisure": "sports_centre",
        "name": "Pletting"
      }
    },
    {
      "type": "node",
      "id": 2203233952,
      "lat": 47.0337773,
      "lon": 15.3014458,
      "tags": {
        "leisure": "sports_centre",
        "name": "Fitnesscenter",
        "sport": "fitness"
      }
    },
    {
      "type": "node",
      "id": 2217294535,
      "lat": 48.4591091,
      "lon": 16.7300373,
      "tags": {
        "leisure": "sports_centre",
        "name": "Sportzentrum",
        "sport": "soccer"
      }
    },
    {
      "type": "node",
      "id": 2225296445,
      "lat": 47.0584772,
      "lon": 15.3664024,
      "tags": {
        "leisure": "stadium",
        "name": "Sportplatz Thal"
      }
    },
    {
      "type": "node",
      "id": 2242838077,
      "lat": 48.3256456,
      "lon": 14.3222435,
      "tags": {
        "leisure": "sports_centre",
        "name": "Happy Fit",
        "sport": "gymnastics"
      }
    },
    {
      "type": "node",
      "id": 2247761435,
      "lat": 46.9524425,
      "lon": 14.4183644,
      "tags": {
        "leisure": "sports_centre",
        "name": "Friesacher AC",
        "sport": "soccer"
      }
    },
    {
      "type": "node",
      "id": 2255125704,
      "lat": 46.8328808,
      "lon": 14.8417012,
      "tags": {
        "leisure": "sports_centre",
        "name": "ATSV Platz",
        "sport": "soccer"
      }
    },
    {
      "type": "node",
      "id": 2310934512,
      "lat": 47.5560544,
      "lon": 10.6481860,
      "tags": {
        "climbing:bolted": "2 m",
        "climbing:grade:uiaa:max": "8",
        "climbing:grade:uiaa:min": "4+",
        "climbing:length": "15",
        "climbing:orientation": "S",
        "climbing:quality": "solid",
        "climbing:rock": "granite",
        "climbing:sport": "yes",
        "leisure": "sports_centre",
        "name": "Vilser Platte",
        "outdoor": "yes",
        "sport": "climbing"
      }
    },
    {
      "type": "node",
      "id": 2315623154,
      "lat": 48.1387375,
      "lon": 13.9481468,
      "tags": {
        "leisure": "sports_centre",
        "name": "ASKÖ"
      }
    },
    {
      "type": "node",
      "id": 2315743874,
      "lat": 48.3651351,
      "lon": 14.4603871,
      "tags": {
        "leisure": "sports_centre",
        "name": "Union Unterweitersdorf"
      }
    },
    {
      "type": "node",
      "id": 2322073946,
      "lat": 48.1879551,
      "lon": 16.3522710,
      "tags": {
        "addr:city": "Wien",
        "addr:country": "AT",
        "addr:housenumber": "62",
        "addr:postcode": "1050",
        "addr:street": "Reinprechtsdorfer Straße",
        "leisure": "sports_centre",
        "name": "YOUNG-UNG Taekwondo",
        "website": "http://www.taekwondowien.at",
        "wheelchair": "no"
      }
    },
    {
      "type": "node",
      "id": 2322078051,
      "lat": 48.2765150,
      "lon": 16.4089473,
      "tags": {
        "addr:city": "Wien",
        "addr:country": "AT",
        "addr:housenumber": "128",
        "addr:postcode": "1210",
        "addr:street": "Brünner Straße",
        "leisure": "sports_centre",
        "name": "YOUNG-UNG Taekwondo"
      }
    },
    {
      "type": "node",
      "id": 2322156158,
      "lat": 48.2523641,
      "lon": 16.4450015,
      "tags": {
        "addr:city": "Wien",
        "addr:country": "AT",
        "addr:housenumber": "113",
        "addr:postcode": "1220",
        "addr:street": "Wagramer Straße",
        "leisure": "sports_centre",
        "name": "YOUNG-UNG Taekwondo"
      }
    },
    {
      "type": "node",
      "id": 2322385681,
      "lat": 48.2109439,
      "lon": 16.3095412,
      "tags": {
        "leisure": "sports_centre",
        "name": "Bounce",
        "sport": "boxing",
        "wheelchair": "no"
      }
    },
    {
      "type": "node",
      "id": 2331749403,
      "lat": 46.6452417,
      "lon": 14.2536848,
      "tags": {
        "leisure": "sports_centre",
        "name": "Archery Start Tessendorf",
        "time": "2013-06-03T16:15:06Z"
      }
    },
    {
      "type": "node",
      "id": 2351971141,
      "lat": 48.1473140,
      "lon": 16.9429653,
      "tags": {
        "addr:housenumber": "10",
        "addr:postcode": "2410",
        "addr:street": "Ungarstraße",
        "leisure": "sports_centre",
        "name": "247GYM",
        "opening_hours": "24/7"
      }
    },
    {
      "type": "node",
      "id": 2353756068,
      "lat": 46.8149491,
      "lon": 13.5235838,
      "tags": {
        "leisure": "sports_centre",
        "name": "Sportcamp Salcher",
        "sport": "tennis;sailing;volleyball;climbing;dance;scating;kayak"
      }
    },