<cities>
    <city name="Klagenfurt">
        <lat>46.6247</lat>
        <lon>14.3053</lon>
    </city>
    <city name="Villach">
        <lat>46.6103</lat>
        <lon>13.8558</lon>
    </city>
    <city name="Spittal an der Drau">
        <lat>46.8006</lat>
        <lon>13.4996</lon>
    </city>
    <city name="Lienz">
        <lat>46.8284</lat>
        <lon>12.7690</lon>
    </city>
    <city name="Völkermarkt">
        <lat>46.6622</lat>
        <lon>14.6347</lon>
    </city>
    <city name="Friesach">
        <lat>46.9542</lat>
        <lon>14.4033</lon>
    </city>
    <city name="Hermagor">
        <lat>46.6272</lat>
        <lon>13.3672</lon>
    </city>
    <city name="Feldkirchen">
        <lat>46.7237</lat>
        <lon>14.0956</lon>
    </city>
    <city name="St. Veit an der Glan">
        <lat>46.7686</lat>
        <lon>14.3600</lon>
    </city>
    <city name="Velden am Wörthersee">
        <lat>46.6130</lat>
        <lon>14.0400</lon>
    </city>
    <city name="Pörtschach am Wörthersee">
        <lat>46.6353</lat>
        <lon>14.1450</lon>
    </city>
    <city name="Maria Wörth">
        <lat>46.6160</lat>
        <lon>14.1810</lon>
    </city>
    <city name="Krumpendorf">
        <lat>46.6186</lat>
        <lon>14.2143</lon>
    </city>
    <city name="Millstatt">
        <lat>46.8040</lat>
        <lon>13.5800</lon>
    </city>
    <city name="Seeboden">
        <lat>46.8150</lat>
        <lon>13.5140</lon>
    </city>
    <city name="Bad Kleinkirchheim">
        <lat>46.8130</lat>
        <lon>13.7800</lon>
    </city>
    <city name="Heiligenblut">
        <lat>47.0390</lat>
        <lon>12.8430</lon>
    </city>
    <city name="Arriach">
        <lat>46.7322</lat>
        <lon>13.8639</lon>
    </city>
    <city name="Graz">
        <lat>47.0707</lat>
        <lon>15.4395</lon>
    </city>
    <city name="Leoben">
        <lat>47.3833</lat>
        <lon>15.1000</lon>
    </city>
    <city name="Kapfenberg">
        <lat>47.4440</lat>
        <lon>15.2930</lon>
    </city>
    <city name="Bruck an der Mur">
        <lat>47.4167</lat>
        <lon>15.2833</lon>
    </city>
    <city name="Mürzzuschlag">
        <lat>47.6000</lat>
        <lon>15.6833</lon>
    </city>
    <city name="Knittelfeld">
        <lat>47.2167</lat>
        <lon>14.8167</lon>
    </city>
    <city name="Judenburg">
        <lat>47.1667</lat>
        <lon>14.6667</lon>
    </city>
    <city name="Voitsberg">
        <lat>47.0500</lat>
        <lon>15.1500</lon>
    </city>
    <city name="Köflach">
        <lat>47.0667</lat>
        <lon>15.0833</lon>
    </city>
    <city name="Deutschlandsberg">
        <lat>46.8167</lat>
        <lon>15.2167</lon>
    </city>
    <city name="Leibnitz">
        <lat>46.7833</lat>
        <lon>15.5333</lon>
    </city>
    <city name="Feldbach">
        <lat>46.9500</lat>
        <lon>15.8833</lon>
    </city>
    <city name="Fürstenfeld">
        <lat>47.0500</lat>
        <lon>16.0833</lon>
    </city>
    <city name="Hartberg">
        <lat>47.2833</lat>
        <lon>15.9667</lon>
    </city>
    <city name="Weiz">
        <lat>47.2167</lat>
        <lon>15.6333</lon>
    </city>
    <city name="Schladming">
        <lat>47.3925</lat>
        <lon>13.6869</lon>
    </city>
    <city name="Ramsau am Dachstein">
        <lat>47.4210</lat>
        <lon>13.6300</lon>
    </city>
    <city name="Bad Aussee">
        <lat>47.6090</lat>
        <lon>13.7820</lon>
    </city>
    <city name="Liezen">
        <lat>47.5667</lat>
        <lon>14.2333</lon>
    </city>
    <city name="Murau">
        <lat>47.1100</lat>
        <lon>14.1700</lon>
    </city>
    <city name="Mariazell">
        <lat>47.7833</lat>
        <lon>15.3167</lon>
    </city>
    <city name="Eisenerz">
        <lat>47.5333</lat>
        <lon>14.8833</lon>
    </city>
    <city name="Trofaiach">
        <lat>47.4250</lat>
        <lon>15.0000</lon>
    </city>
    <city name="Kindberg">
        <lat>47.5000</lat>
        <lon>15.4500</lon>
    </city>
    <city name="Frohnleiten">
        <lat>47.2667</lat>
        <lon>15.3167</lon>
    </city>
    <city name="St. Pölten">
        <lat>48.2040</lat>
        <lon>15.6230</lon>
    </city>
    <city name="Wiener Neustadt">
        <lat>47.8167</lat>
        <lon>16.2500</lon>
    </city>
    <city name="Krems an der Donau">
        <lat>48.4100</lat>
        <lon>15.6000</lon>
    </city>
    <city name="Amstetten">
        <lat>48.1200</lat>
        <lon>14.8700</lon>
    </city>
    <city name="Baden">
        <lat>48.0050</lat>
        <lon>16.2320</lon>
    </city>
    <city name="Klosterneuburg">
        <lat>48.3050</lat>
        <lon>16.3250</lon>
    </city>
    <city name="Mödling">
        <lat>48.0833</lat>
        <lon>16.2833</lon>
    </city>
    <city name="Tulln an der Donau">
        <lat>48.3283</lat>
        <lon>16.0569</lon>
    </city>
    <city name="Stockerau">
        <lat>48.3833</lat>
        <lon>16.2167</lon>
    </city>
    <city name="Korneuburg">
        <lat>48.3464</lat>
        <lon>16.3333</lon>
    </city>
    <city name="Hollabrunn">
        <lat>48.5667</lat>
        <lon>16.0833</lon>
    </city>
    <city name="Gänserndorf">
        <lat>48.3390</lat>
        <lon>16.7200</lon>
    </city>
    <city name="Mistelbach">
        <lat>48.5700</lat>
        <lon>16.5700</lon>
    </city>
    <city name="Bruck an der Leitha">
        <lat>48.0167</lat>
        <lon>16.7833</lon>
    </city>
    <city name="Neunkirchen">
        <lat>47.7200</lat>
        <lon>16.0800</lon>
    </city>
    <city name="Wr. Neustadt Umgebung">
        <lat>47.8100</lat>
        <lon>16.2300</lon>
    </city>
    <city name="Schwechat">
        <lat>48.1333</lat>
        <lon>16.4667</lon>
    </city>
    <city name="Traiskirchen">
        <lat>48.0167</lat>
        <lon>16.3000</lon>
    </city>
    <city name="Bad Vöslau">
        <lat>47.9667</lat>
        <lon>16.2167</lon>
    </city>
    <city name="Berndorf">
        <lat>47.9500</lat>
        <lon>16.1000</lon>
    </city>
    <city name="Waidhofen an der Ybbs">
        <lat>47.9600</lat>
        <lon>14.7700</lon>
    </city>
    <city name="Melk">
        <lat>48.2270</lat>
        <lon>15.3380</lon>
    </city>
    <city name="Scheibbs">
        <lat>48.0000</lat>
        <lon>15.1667</lon>
    </city>
    <city name="Zwettl">
        <lat>48.6167</lat>
        <lon>15.1667</lon>
    </city>
    <city name="Gmünd">
        <lat>48.7667</lat>
        <lon>14.9833</lon>
    </city>
    <city name="Waidhofen an der Thaya">
        <lat>48.8167</lat>
        <lon>15.2833</lon>
    </city>
    <city name="Horn">
        <lat>48.6667</lat>
        <lon>15.6500</lon>
    </city>
    <city name="Langenlois">
        <lat>48.4667</lat>
        <lon>15.6667</lon>
    </city>
    <city name="Dürnstein">
        <lat>48.3960</lat>
        <lon>15.5190</lon>
    </city>
    <city name="Semmering">
        <lat>47.6333</lat>
        <lon>15.8333</lon>
    </city>
    <city name="Linz">
        <lat>48.3069</lat>
        <lon>14.2858</lon>
    </city>
    <city name="Wels">
        <lat>48.1667</lat>
        <lon>14.0333</lon>
    </city>
    <city name="Steyr">
        <lat>48.0427</lat>
        <lon>14.4213</lon>
    </city>
    <city name="Gmunden">
        <lat>47.9180</lat>
        <lon>13.7990</lon>
    </city>
    <city name="Vöcklabruck">
        <lat>48.0000</lat>
        <lon>13.6500</lon>
    </city>
    <city name="Attnang-Puchheim">
        <lat>48.0080</lat>
        <lon>13.7180</lon>
    </city>
    <city name="Bad Ischl">
        <lat>47.7110</lat>
        <lon>13.6180</lon>
    </city>
    <city name="Ried im Innkreis">
        <lat>48.2110</lat>
        <lon>13.4880</lon>
    </city>
    <city name="Braunau am Inn">
        <lat>48.2580</lat>
        <lon>13.0400</lon>
    </city>
    <city name="Schärding">
        <lat>48.4510</lat>
        <lon>13.4340</lon>
    </city>
    <city name="Leonding">
        <lat>48.2797</lat>
        <lon>14.2533</lon>
    </city>
    <city name="Traun">
        <lat>48.2200</lat>
        <lon>14.2330</lon>
    </city>
    <city name="Enns">
        <lat>48.2130</lat>
        <lon>14.4760</lon>
    </city>
    <city name="Ansfelden">
        <lat>48.2090</lat>
        <lon>14.2900</lon>
    </city>
    <city name="Freistadt">
        <lat>48.5110</lat>
        <lon>14.5040</lon>
    </city>
    <city name="Perg">
        <lat>48.2500</lat>
        <lon>14.6330</lon>
    </city>
    <city name="Rohrbach-Berg">
        <lat>48.5730</lat>
        <lon>13.9920</lon>
    </city>
    <city name="Kirchdorf an der Krems">
        <lat>47.9050</lat>
        <lon>14.1240</lon>
    </city>
    <city name="Windischgarsten">
        <lat>47.7240</lat>
        <lon>14.3300</lon>
    </city>

    <city name="Hallstatt">
        <lat>47.5620</lat>
        <lon>13.6490</lon>
    </city>
    <city name="St. Wolfgang">
        <lat>47.7400</lat>
        <lon>13.4480</lon>
    </city>
    <city name="Salzburg">
        <lat>47.8095</lat>
        <lon>13.0550</lon>
    </city>
    <city name="Hallein">
        <lat>47.6833</lat>
        <lon>13.1000</lon>
    </city>
    <city name="St. Johann im Pongau">
        <lat>47.3500</lat>
        <lon>13.2000</lon>
    </city>
    <city name="Bischofshofen">
        <lat>47.4167</lat>
        <lon>13.2167</lon>
    </city>
    <city name="Zell am See">
        <lat>47.3250</lat>
        <lon>12.8000</lon>
    </city>
    <city name="Saalfelden">
        <lat>47.4260</lat>
        <lon>12.8480</lon>
    </city>
    <city name="Tamsweg">
        <lat>47.1300</lat>
        <lon>13.8100</lon>
    </city>
    <city name="Seekirchen am Wallersee">
        <lat>47.9000</lat>
        <lon>13.1330</lon>
    </city>
    <city name="Neumarkt am Wallersee">
        <lat>47.9500</lat>
        <lon>13.2330</lon>
    </city>
    <city name="Golling an der Salzach">
        <lat>47.6000</lat>
        <lon>13.1667</lon>
    </city>
    <city name="Bad Gastein">
        <lat>47.1150</lat>
        <lon>13.1330</lon>
    </city>
    <city name="Bad Hofgastein">
        <lat>47.1720</lat>
        <lon>13.0980</lon>
    </city>
    <city name="Obertauern">
        <lat>47.2520</lat>
        <lon>13.5480</lon>
    </city>
    <city name="Kaprun">
        <lat>47.2710</lat>
        <lon>12.7570</lon>
    </city>
    <city name="Saalbach">
        <lat>47.3910</lat>
        <lon>12.6370</lon>
    </city>
    <city name="Hinterglemm">
        <lat>47.3780</lat>
        <lon>12.6060</lon>
    </city>
    <city name="Innsbruck">
        <lat>47.2692</lat>
        <lon>11.4041</lon>
    </city>
    <city name="Kufstein">
        <lat>47.5833</lat>
        <lon>12.1667</lon>
    </city>
    <city name="Wörgl">
        <lat>47.4833</lat>
        <lon>12.0667</lon>
    </city>
    <city name="Hall in Tirol">
        <lat>47.2833</lat>
        <lon>11.5167</lon>
    </city>
    <city name="Schwaz">
        <lat>47.3500</lat>
        <lon>11.7000</lon>
    </city>
    <city name="Lienz">
        <lat>46.8284</lat>
        <lon>12.7690</lon>
    </city>
    <city name="Imst">
        <lat>47.2450</lat>
        <lon>10.7390</lon>
    </city>
    <city name="Landeck">
        <lat>47.1390</lat>
        <lon>10.5650</lon>
    </city>
    <city name="Reutte">
        <lat>47.4833</lat>
        <lon>10.7167</lon>
    </city>
    <city name="Kitzbühel">
        <lat>47.4450</lat>
        <lon>12.3920</lon>
    </city>
    <city name="St. Johann in Tirol">
        <lat>47.5230</lat>
        <lon>12.4230</lon>
    </city>
    <city name="Sölden">
        <lat>46.9700</lat>
        <lon>11.0100</lon>
    </city>
    <city name="Ischgl">
        <lat>47.0120</lat>
        <lon>10.2910</lon>
    </city>
    <city name="St. Anton am Arlberg">
        <lat>47.1270</lat>
        <lon>10.2640</lon>
    </city>
    <city name="Mayrhofen">
        <lat>47.1667</lat>
        <lon>11.8667</lon>
    </city>
    <city name="Seefeld in Tirol">
        <lat>47.3300</lat>
        <lon>11.1900</lon>
    </city>
    <city name="Zell am Ziller">
        <lat>47.2333</lat>
        <lon>11.8833</lon>
    </city>
    <city name="Dornbirn">
        <lat>47.4125</lat>
        <lon>9.7415</lon>
    </city>
    <city name="Feldkirch">
        <lat>47.2413</lat>
        <lon>9.5986</lon>
    </city>
    <city name="Bregenz">
        <lat>47.5031</lat>
        <lon>9.7471</lon>
    </city>
    <city name="Bludenz">
        <lat>47.1540</lat>
        <lon>9.8220</lon>
    </city>
    <city name="Hohenems">
        <lat>47.3667</lat>
        <lon>9.6833</lon>
    </city>
    <city name="Rankweil">
        <lat>47.2667</lat>
        <lon>9.6333</lon>
    </city>
    <city name="Lustenau">
        <lat>47.4267</lat>
        <lon>9.6583</lon>
    </city>
    <city name="Egg">
        <lat>47.4310</lat>
        <lon>9.8990</lon>
    </city>
    <city name="Bezau">
        <lat>47.3830</lat>
        <lon>9.9020</lon>
    </city>
    <city name="Lech am Arlberg">
        <lat>47.2070</lat>
        <lon>10.1420</lon>
    </city>
    <city name="Zürs">
        <lat>47.1700</lat>
        <lon>10.1700</lon>
    </city>
    <city name="Schruns">
        <lat>47.0800</lat>
        <lon>9.9200</lon>
    </city>
    <city name="St. Gallenkirch">
        <lat>47.0167</lat>
        <lon>9.9667</lon>
    </city>
    <city name="Damüls">
        <lat>47.2830</lat>
        <lon>9.8830</lon>
    </city>
</cities>