<lakes>
    <lake name="Wörthersee">
        <lat>46.6300</lat>
        <lon>14.1400</lon>
    </lake>
    <lake name="Millstätter See">
        <lat>46.7900</lat>
        <lon>13.5800</lon>
    </lake>
    <lake name="Ossiacher See">
        <lat>46.6600</lat>
        <lon>13.9500</lon>
    </lake>
    <lake name="Faaker See">
        <lat>46.5750</lat>
        <lon>13.9200</lon>
    </lake>
    <lake name="Weissensee">
        <lat>46.7200</lat>
        <lon>13.2800</lon>
    </lake>
    <lake name="Klopeiner See">
        <lat>46.6080</lat>
        <lon>14.5750</lon>
    </lake>
    <lake name="Pressegger See">
        <lat>46.6300</lat>
        <lon>13.4400</lon>
    </lake>
</lakes>